~Version
 VERS              .         3.0                           : CWLS LOG ASCII STANDARD - VERSION 3.0
 WRAP              .         NO                            : ONE LINE PER DEPTH STEP
 DLM               .         SPACE                         : DELIMITING CHARACTER(SPACE TAB OR COMMA)
~Well Information
#_______________________________________________________________________________
#
#PARAMETER_NAME    .UNIT     VALUE                         : DESCRIPTION
#_______________________________________________________________________________
STRT               .m        563.118                       : First reference value
STOP               .m        914.2476                      : Last reference value
STEP               .m        0.1524                        : Step increment
NULL               .         -9999                         : Missing value
COMP               .         SomeCompany                   : Company
WELL               .         Well_E                        : Well name
FLD                .                                       : Field
LOC                .                                       : Location
SRVC               .                                       : Service Company
CTRY               .         NO                            : Country
DATE               .                                       : Service Date
LATI               .deg      70.000000                     : Latitude
LONG               .deg      35.000000                     : Longitude
GDAT               .                                       : Geodetic Datum
Completion_date    .         2020-02-17                    : Completed date
COUNTRY            .         Norway                        : 
EREF               .m        25.0                          : Kelly bushing elevation
DREF               .m        MSL                           : 
HZCS               .         ED50-UTM35                    : UTM zone
LGWN               .         Well_E                        : Wellbore name
OPER               .         SomeCompany                   : Drilling operator group
SPDA               .         2020-02-17                    : Entered date
SHWN               .         Well_E                        : Well name
STAT               .         BARENTS SEA                   : Main area
TD                 .m        930.0                         : Total depth
UWI                .         Well_E                        : NPDID wellbore
Water_depth        .m        400.0                         : Water depth
X                  .m        400000.00                     : EW UTM
Y                  .m        8000000.00                    : NS UTM
~Parameter Information Block
#_______________________________________________________________________________
#
#PARAMETER_NAME    .UNIT     VALUE                         : DESCRIPTION
#_______________________________________________________________________________
SET                .         CPI                           : 
TLFamily_DEPTH     .         Measured Depth                : 
TLFamily_PHIE      .         Effective Porosity            : 
TLFamily_PHIT      .         Total Porosity                : 
TLFamily_SW        .         Water Saturation              : 
TLFamily_VSH       .         Shale Volume Fraction         : 
~Curve Information
#_______________________________________________________________________________
#
#LOGNAME           .UNIT     LOG_ID                        : DESCRIPTION
#_______________________________________________________________________________
DEPTH              .m                                      :  {F}
PHIE_test          .v/v                                    : Porosity {F}
PHIT_test          .v/v                                    : Porosity {F}
SW_test            .v/v                                    :  {F}
VSH_test           .v/v                                    : Vshale {F}
~Ascii
# ...
763.3716   0.01037129 0.1002846  1          0.7282976 
763.524    0.01268744 0.1034772  1          0.7353968 
763.6764   0.01555439 0.1044933  1          0.7204047 
763.8288   0.01180158 0.1070518  1          0.7715271 
763.9812   0.01073043 0.1075315  1          0.7840884 
764.1336   0.00552546 0.1052661  1          0.8078988 
764.286    0          0.09497035 1          0.8698668 
764.4384   0          0.08483344 1          0.9376828 
764.5908   0          0.0764211  1          1         
764.7432   0          0.07326484 1          1         
764.8956   0          0.06969269 1          1         
765.048    0          0.05874383 1          1         
765.2004   0          0.04667411 1          1         
765.3528   0          0.03942413 1          1         
765.5052   0          0.04842414 1          1         
765.6576   0          0.0646235  1          1         
765.81     0          0.078976   1          1         
765.9624   0          0.08534575 1          1         
766.1148   0          0.08569573 1          1         
766.2672   0          0.08238465 1          1         
766.4196   0          0.08193092 1          1         
766.572    0          0.08129323 1          0.9586049 
766.7244   0          0.07902104 1          0.9225723 
766.8768   0          0.07917719 1          0.8389947 
767.0292   0          0.08410627 1          0.9314317 
767.1816   0          0.08832716 1          0.9625517 
767.334    0          0.07875745 1          1         
767.4864   0          0.06634571 1          1         
767.6388   0          0.06291793 1          1         
767.7912   0          0.06583457 1          1         
767.9436   0          0.06818035 1          1         
768.096    0          0.06580691 1          1         
768.2484   0          0.06457788 1          1         
768.4008   0          0.06901364 1          1         
768.5532   0          0.07401174 1          1         
768.7056   0          0.08053146 1          1         
768.858    0          0.08288901 1          1         
769.0104   0          0.07915555 1          1         
769.1628   0          0.07053893 1          1         
769.3152   0          0.06286053 1          1         
769.4676   0          0.06192481 1          1         
769.62     0          0.06543647 1          1         
769.7724   0          0.06683888 1          1         
769.9248   0          0.06467722 1          1         
770.0772   0          0.06548769 1          1         
770.2296   0          0.06535745 1          1         
770.382    0          0.06882291 1          1         
770.5344   0          0.06502543 1          1         
770.6868   0          0.06423158 1          1         
770.8392   0          0.07651793 1          0.9899836 
770.9916   0.0152791  0.106768   1          0.7410595 
771.144    0.08727937 0.1494525  1          0.5036024 
771.2964   0.1296238  0.1756168  1          0.3725426 
771.4488   0.1581527  0.192505   1          0.2782534 
771.6012   0.1437123  0.1838315  1          0.3249648 
771.7536   0.1278889  0.1751284  1          0.3826405 
771.906    0.07024537 0.1430049  1          0.5893523 
772.0584   0.001568898 0.09487101 1          0.755747  
772.2108   0          0.0610612  1          0.9072549 
772.3632   0          0.05726431 1          0.9442613 
772.5156   0          0.0851247  1          0.8608555 
772.668    0          0.1016019  1          0.8386834 
772.8204   0.008985322 0.1042846  1          0.7719238 
772.9728   0.02436113 0.09771246 1          0.5941457 
773.1252   0.02385505 0.09191668 1          0.5512991 
773.2776   0.02906244 0.1018315  1          0.5894294 
773.43     0.03044743 0.1176797  1          0.7065815 
773.5824   0.06928365 0.1464895  1          0.6253674 
773.7348   0.1053929  0.1673631  1          0.5019585 
773.8872   0.1407416  0.1835236  1          0.346534  
774.0396   0.1486183  0.189876   1          0.3341868 
774.192    0.1438248  0.1936408  1          0.4035088 
774.3444   0.1240599  0.1945852  1          0.5712543 
774.4968   0.1060027  0.1880803  1          0.6648288 
774.6492   0.09007795 0.1797864  1          0.7266386 
774.8016   0.09069528 0.1746913  1          0.6803679 
774.954    0.08508861 0.1735722  1          0.7167173 
775.1064   0.07902995 0.1707914  1          0.7432679 
775.2588   0.06938653 0.1799476  1          0.8955444 
775.4112   0.08882849 0.1957711  1          0.8662348 
775.5636   0.1216096  0.2197032  1          0.7945578 
775.716    0.1704334  0.2389142  1          0.5546945 
775.8684   0.1877469  0.2521044  1          0.5212951 
776.0208   0.2081003  0.2616271  1          0.4335675 
776.1732   0.2056367  0.2605668  1          0.4449338 
776.3256   0.1811134  0.2395995  1          0.4737371 
776.478    0.1318294  0.2139537  1          0.6652066 
776.6304   0.1079994  0.2009217  1          0.75267   
776.7828   0.1097207  0.2061284  1          0.7809029 
776.9352   0.1287961  0.216605   1          0.7112526 
777.0876   0.1446943  0.2321143  1          0.7081022 
777.24     0.1587819  0.2384518  1          0.6453259 
777.3924   0.1620219  0.2318124  1          0.5653034 
777.5448   0.1294868  0.2090662  1          0.6445923 
777.6972   0.1268524  0.1964562  1          0.5637906 
777.8496   0.1349711  0.1958439  1          0.4930695 
778.002    0.1333405  0.1916136  1          0.4720123 
778.1544   0.1262182  0.1875236  1          0.4965736 
778.3068   0.1229754  0.1942197  1          0.5770789 
778.4592   0.146484   0.209968   1          0.5142204 
778.6116   0.1705385  0.2229439  1          0.4244839 
778.764    0.1866671  0.2205952  1          0.2748168 
778.9164   0.1806063  0.2059334  1          0.2051495 
779.0688   0.1444964  0.1816223  1          0.3007193 
779.2212   0.08275662 0.146429   1          0.5157465 
779.3736   0.02421615 0.1117846  1          0.7093043 
779.526    0          0.08986364 1          0.7992251 
779.6784   0          0.08142347 1          0.801746  
779.8308   0          0.08281057 1          0.8107631 
779.9832   0          0.08262778 1          0.8852135 
780.1356   0          0.08005875 1          0.9866111 
780.288    0          0.07766175 1          1         
780.4404   0          0.07610497 1          1         
780.5928   0          0.07131923 1          1         
780.7452   0          0.06802788 1          1         
780.8976   0          0.07009697 1          0.95092   
781.05     0          0.08655992 1          0.8630143 
781.2024   0.02205257 0.1133568  1          0.7395645 
781.3548   0.05643969 0.1345087  1          0.6323588 
781.5072   0.07593409 0.1380754  1          0.5033445 
781.6596   0.08270933 0.1361445  1          0.4328249 
781.812    0.1071465  0.1499124  1          0.3464043 
781.9644   0.1679181  0.1982081  1          0.2453489 
782.1168   0.2318631  0.2518883  1          0.1622047 
782.2692   0.2856482  0.2917081  0.9152689  0.04908477
782.4216   0.2906184  0.3051092  0.9355078  0.1173758 
782.574    0.2990057  0.3073698  0.9147241  0.06774917
782.7264   0.2893348  0.3100377  0.9264872  0.1676939 
782.8788   0.2972881  0.3094211  0.9172803  0.09827675
783.0312   0.3022197  0.3071957  0.9241645  0.04030577
783.1836   0.3009902  0.304618   0.9010001  0.02938478
783.336    0.2964327  0.3018062  0.9109669  0.04352587
783.4884   0.2876527  0.2962507  0.9706131  0.06964358
783.6408   0.2649792  0.2825272  1          0.1421389 
783.7932   0.219188   0.2505895  1          0.2543526 
783.9456   0.1357851  0.1844846  1          0.3944659 
784.098    0.05898819 0.1013778  1          0.3433556 
784.2504   0          0.04139579 1          0.3517781 
784.4028   0          0.02006852 1          0.3728149 
784.5552   0          0.03433345 1          0.348588  
784.7076   0.02739606 0.06562294 1          0.3096377 
784.86     0.0768528  0.1032839  1          0.2140923 
785.0124   0.09732396 0.1213593  1          0.1946864 
785.1648   0.05782675 0.09568031 1          0.3066138 
785.3172   0          0.04470068 1          0.5125339 
785.4696   0          0          1          0.5982836 
