#----------------------------------------------------------------------------
~VERSION INFORMATION
VERS.            2.0                  :CWLS LOG ASCII STANDARD -VERSION 2.0
WRAP.            NO                   :ONE LINE PER DEPTH STEP
#
# Created by marten, at DESKTOP-7JFC02N, on 2020-03-17T21:40:57.014521, using version XXX
# NOTE: Some notes for well A
# Written to las on: 2020-03-17T21:52:46.162651
# Modified on: 2020-03-17T21:40:57.273821
#  Modification: sw: None, Test data generated from VCL
#--------------------------------------------------------------------
~WELL INFORMATION
#MNEM .UNIT      DATA                 :DESCRIPTION OF MNEMONIC
#----------      ------------         -------------------------------
STRT   .m        295.0                :START DEPTH
STOP   .m        2636.1688            :STOP DEPTH
STEP   .m        0.1524               :STEP DEPTH
WELL   .         Well_F               :WELL
NULL   .         -999.25              :NULL VALUE
COMP   .                              :COMPANY
WELL   .         Well_F               :WELL
LOC    .         Norway               :LOCATION - AREA
FLD    .                              :FIELD
CTRY   .         nor                  :COUNTRY
DATE   .                              :WELL DATE
XWELL  .m        0                    :X POS
YWELL  .m        0                    :Y POS
EDF    .         24.0                 :DERRICK FLOOR ELEVATION
#
# ----------------------------------------------------------------------------
~CURVE INFORMATION
# MNEM.UNIT                                         : CURVE DESCRIPTION
# ----------                                        -------------------------------
DEPTH               .m                                : 1        DEPTH
VP_DRY              .m/s                              : 2        Vp
VP_SG08             .m/s                              : 3        Vp
VP_SO08             .m/s                              : 4        Vp
VS_DRY              .m/s                              : 5        Vs
VS_SG08             .m/s                              : 6        Vs
VS_SO08             .m/s                              : 7        Vs
RHO_DRY             .g/cm3                            : 8        Rho
RHO_SG08            .g/cm3                            : 9        Rho
RHO_SO08            .g/cm3                            : 10       Rho
PHIE                .fract                            : 11       Por
VCL                 .fract                            : 12       Volume
SW                  .fract                            : 13       Fake water saturation
#
# ----------------------------------------------------------------------------
~A                  VP_DRY              VP_SG08             VP_SO08             VS_DRY              VS_SG08             VS_SO08             RHO_DRY             RHO_SG08            RHO_SO08            PHIE                VCL                 SW                  
# ...
2628.8536           4251.7873           4251.7873           4251.7873           2563.2373           2563.2373           2563.2373           2.514               2.514               2.514               -999.25             -999.25             -999.25             
2629.006            4251.7873           4251.7873           4251.7873           2563.2373           2563.2373           2563.2373           2.514               2.514               2.514               -999.25             -999.25             -999.25             
2629.1584           4251.7873           4251.7873           4251.7873           2563.2373           2563.2373           2563.2373           2.5234              2.5234              2.5234              -999.25             -999.25             -999.25             
2629.3108           4251.7873           4251.7873           4251.7873           2563.2373           2563.2373           2563.2373           2.529               2.529               2.529               -999.25             -999.25             -999.25             
2629.4632           4251.7873           4251.7873           4251.7873           2563.2373           2563.2373           2563.2373           2.527               2.527               2.527               -999.25             -999.25             -999.25             
2629.6156           4251.7873           4251.7873           4251.7873           2563.2373           2563.2373           2563.2373           2.5188              2.5188              2.5188              -999.25             -999.25             -999.25             
2629.768            4251.7873           4251.7873           4251.7873           2563.2373           2563.2373           2563.2373           2.5159              2.5159              2.5159              -999.25             -999.25             -999.25             
2629.9204           4251.7873           4251.7873           4251.7873           2563.2373           2563.2373           2563.2373           2.5187              2.5187              2.5187              -999.25             -999.25             -999.25             
2630.0728           4251.7873           4251.7873           4251.7873           2563.2373           2563.2373           2563.2373           2.5337              2.5337              2.5337              -999.25             -999.25             -999.25             
2630.2252           4251.7873           4251.7873           4251.7873           2563.2373           2563.2373           2563.2373           2.5507              2.5507              2.5507              -999.25             -999.25             -999.25             
2630.3776           4251.7873           4251.7873           4251.7873           2563.2373           2563.2373           2563.2373           2.5638              2.5638              2.5638              -999.25             -999.25             -999.25             
2630.53             4251.7873           4251.7873           4251.7873           2563.2373           2563.2373           2563.2373           2.5691              2.5691              2.5691              -999.25             -999.25             -999.25             
2630.6824           4251.7873           4251.7873           4251.7873           2563.2373           2563.2373           2563.2373           2.5711              2.5711              2.5711              -999.25             -999.25             -999.25             
2630.8348           4251.7873           4251.7873           4251.7873           2563.2373           2563.2373           2563.2373           2.5712              2.5712              2.5712              -999.25             -999.25             -999.25             
2630.9872           4251.7873           4251.7873           4251.7873           2563.2373           2563.2373           2563.2373           2.5712              2.5712              2.5712              -999.25             -999.25             -999.25             
2631.1396           4251.7873           4251.7873           4251.7873           2563.2373           2563.2373           2563.2373           2.5712              2.5712              2.5712              -999.25             -999.25             -999.25             
2631.292            4251.7873           4251.7873           4251.7873           2563.2373           2563.2373           2563.2373           2.5712              2.5712              2.5712              -999.25             -999.25             -999.25             
2631.4444           4251.7873           4251.7873           4251.7873           2563.2373           2563.2373           2563.2373           2.5712              2.5712              2.5712              -999.25             -999.25             -999.25             
2631.5968           4251.7873           4251.7873           4251.7873           2563.2373           2563.2373           2563.2373           2.5712              2.5712              2.5712              -999.25             -999.25             -999.25             
2631.7492           4251.7873           4251.7873           4251.7873           2563.2373           2563.2373           2563.2373           2.5712              2.5712              2.5712              -999.25             -999.25             -999.25             
2631.9016           4251.7873           4251.7873           4251.7873           2563.2373           2563.2373           2563.2373           2.5712              2.5712              2.5712              -999.25             -999.25             -999.25             
2632.054            4251.7873           4251.7873           4251.7873           2563.2373           2563.2373           2563.2373           2.5712              2.5712              2.5712              -999.25             -999.25             -999.25             
2632.2064           4251.7873           4251.7873           4251.7873           2563.2373           2563.2373           2563.2373           2.5712              2.5712              2.5712              -999.25             -999.25             -999.25             
2632.3588           4251.7873           4251.7873           4251.7873           2563.2373           2563.2373           2563.2373           2.5712              2.5712              2.5712              -999.25             -999.25             -999.25             
2632.5112           4251.7873           4251.7873           4251.7873           2563.2373           2563.2373           2563.2373           2.5712              2.5712              2.5712              -999.25             -999.25             -999.25             
2632.6636           4251.7873           4251.7873           4251.7873           2563.2373           2563.2373           2563.2373           2.5712              2.5712              2.5712              -999.25             -999.25             -999.25             
2632.816            4251.7873           4251.7873           4251.7873           2563.2373           2563.2373           2563.2373           2.5712              2.5712              2.5712              -999.25             -999.25             -999.25             
2632.9684           4251.7873           4251.7873           4251.7873           2563.2373           2563.2373           2563.2373           2.5712              2.5712              2.5712              -999.25             -999.25             -999.25             
2633.1208           4251.7873           4251.7873           4251.7873           2563.2373           2563.2373           2563.2373           2.5712              2.5712              2.5712              -999.25             -999.25             -999.25             
2633.2732           4251.7873           4251.7873           4251.7873           2563.2373           2563.2373           2563.2373           -999.25             -999.25             -999.25             -999.25             -999.25             -999.25             
2633.4256           4251.7873           4251.7873           4251.7873           2563.2373           2563.2373           2563.2373           -999.25             -999.25             -999.25             -999.25             -999.25             -999.25             
