~VERSION INFORMATION
VERS.                                                 2.0:   CWLS Log ASCII Standard-VERSION 2.0
WRAP.                                                  NO:   One line per depth step
~Well Information Block
STRT.M                                           342.1868:   Top Depth
STOP.M                                          2635.3496:   Bottom Depth
STEP.M                                             .15240:   Depth Increment
NULL.                                            -999.250:   Null Value
FLD .                                              A NAME:   Field Name
WELL.                                             WELL A:   NAME
WBN .                                             WELL A:   WELLBORE
NATI.                                                 NOR:   COUNTRY
CTRY.                                                 NOR:   COUNTRY
COMP.                               	     COMPANY NAME:   OPERATOR
PROV.                                           SOMEWHERE:   PROVINCE
COUN.                                                 RIG:   RIG NAME
SPUD.                                          1970/01/01:   SPUD DATE
LATI.                                       00 00 00.00 N:   SURF. LATITUDE
LONG.                                       00 00 00.00 E:   SURF. LONGITUDE
PBWE.                                              WELL A:   PB WELL ID
PBWB.                                              WELL A:   PB WELLBORE ID
PBWS.                                                 all:   PB WELL NAME SET
~PARAMETER INFORMATION (log)
LNAM.                                           COMPOSITE:   NAME
LTYP.                                         DEPTH MATCH:   LOG TYPE
LSRV.                                              HYBRID:   LOG SERVICE
LSOU.                                                  OD:   LOG SOURCE
LVSN.                                                   1:   LOG VERSION
BHIS.                                                   R:   BRIEF HISTORY
FHIS.                                             RAW-LIS:   FULL HISTORY
LCNM.                                                EXLO:   LOGGING CONTRACTOR
TOOL.                             DIL/BHC/GR (COMPOSITED):   TOOL STRING
QCRM.                                           HQLD data:   QC COMMENT
QCCD.                                                high:   QC LEVEL
QCCO.                                               SIMON:   QC COMPANY
QCST.                                               final:   QC STATUS
~Curve Information Block
#MNEM.UNIT                                        API CODE    No Description
#=========                                        ========    == ===========
DEPT.M                                       00 001 00 00:     1  DEPTH
HDRHO.G/CC                                               :     2  Nuclear Radiation
HNPHI.FRAC                                               :     3  Nuclear Radiation
HRHOB.G/CC                                               :     4  Nuclear Radiation
HRS.OHMM                                                 :     5  Electromagnetic Response
HDT.US/F                                                 :     6  Acoustic Response
HGR.GAPI                                                 :     7  Nuclear Radiation
HRD.OHMM                                                 :     8  Electromagnetic Response
HRM.OHMM                                                 :     9  Electromagnetic Response
HCALI.IN                                                 :    10  Formation Evaluation
~ASCII
# ...
 2022.0920     -.0209      .1594     2.3516     2.2028    75.2787    22.6985      .8524     1.3099     8.2980
 2022.2444     -.0223      .1582     2.3538     2.6843    74.7894    22.2510      .8535     1.3922     8.3058
 2022.3968     -.0238      .1570     2.3542     2.3749    74.5081    21.6773      .8610     1.4523     8.3135
 2022.5492     -.0249      .1596     2.3519     2.1122    74.5177    20.8388      .8548     1.4231     8.3197
 2022.7016     -.0246      .1635     2.3505     2.0790    74.9154    19.6286      .8475     1.3626     8.3206
 2022.8540     -.0240      .1649     2.3490     2.0106    75.1190    18.2281      .8403     1.3022     8.3201
 2023.0064     -.0234      .1618     2.3419     1.9859    75.5321    17.6833      .8243     1.2418     8.3195
 2023.1588     -.0222      .1585     2.3286     1.8947    75.7252    18.0661      .8031     1.1928     8.3179
 2023.3112     -.0207      .1596     2.3253     1.8813    75.6306    17.9462      .7842     1.1509     8.3119
 2023.4636     -.0191      .1614     2.3318     1.8046    74.7991    17.3376      .7790     1.1551     8.3025
 2023.6160     -.0178      .1607     2.3418     1.8684    73.6660    16.7892      .7737     1.1708     8.2950
 2023.7684     -.0169      .1545     2.3481     1.8617    72.7399    16.3273      .7748     1.1883     8.2898
 2023.9208     -.0172      .1481     2.3506     2.0228    72.5421    15.8065      .7889     1.2158     8.2847
 2024.0732     -.0178      .1441     2.3515     2.1298    72.6425    15.2151      .8029     1.2434     8.2796
 2024.2256     -.0185      .1437     2.3519     2.1921    72.7740    15.1239      .8169     1.2709     8.2756
 2024.3780     -.0191      .1438     2.3546     2.1476    72.9053    15.5656      .8309     1.2904     8.2751
 2024.5304     -.0197      .1431     2.3563     2.1474    72.8861    16.1937      .8465     1.2959     8.2746
 2024.6828     -.0205      .1421     2.3572     2.2228    72.7490    16.9643      .8630     1.2956     8.2741
 2024.8352     -.0212      .1419     2.3579     2.2750    72.3488    17.3772      .8794     1.2952     8.2745
 2024.9876     -.0210      .1405     2.3579     2.2806    72.1054    17.2387      .8910     1.2961     8.2780
 2025.1400     -.0182      .1382     2.3594     2.3103    71.8448    16.8549      .8947     1.3429     8.2838
 2025.2924     -.0143      .1376     2.3673     2.2850    72.2158    16.6071      .8983     1.3807     8.2896
 2025.4448     -.0128      .1382     2.3756     2.2273    72.5197    16.7779      .9019     1.3845     8.2954
 2025.5972     -.0125      .1379     2.3801     2.3111    72.5254    16.9913      .9052     1.3882     8.3011
 2025.7496     -.0148      .1363     2.3796     2.2879    72.3322    16.7764      .9050     1.3922     8.3065
 2025.9020     -.0169      .1345     2.3762     2.2951    72.0508    16.2494      .9055     1.3997     8.3096
 2026.0544     -.0185      .1343     2.3737     2.2446    71.9460    15.7190      .9126     1.4072     8.3090
 2026.2068     -.0194      .1353     2.3723     2.2979    71.9516    15.8016      .9197     1.4147     8.3084
 2026.3592     -.0200      .1365     2.3708     2.4152    72.1561    16.4322      .9267     1.4161     8.3078
 2026.5116     -.0206      .1377     2.3677     2.3402    72.8866    17.0645      .9238     1.4132     8.3072
 2026.6640     -.0211      .1398     2.3650     2.3443    73.6815    17.8286      .9152     1.3927     8.3066
 2026.8164     -.0210      .1439     2.3624     2.2788    74.4901    18.9481      .9065     1.3722     8.3060
 2026.9688     -.0204      .1510     2.3577     2.0604    75.0222    20.1093      .8979     1.3517     8.3054
 2027.1212     -.0202      .1576     2.3498     2.0991    75.5103    21.0626      .8902     1.3129     8.3045
 2027.2736     -.0202      .1581     2.3468     1.9766    75.0197    22.0955      .8830     1.2740     8.3024
 2027.4260     -.0203      .1537     2.3476     2.0510    74.5810    22.7285      .8798     1.2598     8.2993
 2027.5784     -.0204      .1481     2.3499     2.2045    73.6336    22.0522      .8837     1.2748     8.2961
 2027.7308     -.0214      .1433     2.3532     2.2214    72.6428    20.4877      .8876     1.3156     8.2929
 2027.8832     -.0221      .1396     2.3578     2.3284    72.2459    18.8741      .8915     1.3565     8.2898
 2028.0356     -.0217      .1377     2.3642     2.4912    72.5166    17.7483      .8931     1.4136     8.2866
 2028.1880     -.0212      .1395     2.3709     2.5394    73.0192    17.4772      .8912     1.4804     8.2835
 2028.3404     -.0208      .1440     2.3733     2.4564    73.7975    18.5298      .8893     1.4747     8.2813
 2028.4928     -.0201      .1485     2.3710     2.2885    74.5143    20.4908      .8874     1.4448     8.2827
 2028.6452     -.0189      .1514     2.3678     2.1375    74.6261    22.4069      .8855     1.4149     8.2858
 2028.7976     -.0177      .1540     2.3632     2.1148    74.6227    23.4147      .8665     1.3982     8.2890
 2028.9500     -.0165      .1571     2.3585     2.3015    74.7523    23.5365      .8371     1.4107     8.2921
 2029.1024     -.0153      .1603     2.3539     2.2316    75.7327    24.8663      .8273     1.3982     8.2949
 2029.2548     -.0141      .1647     2.3477     2.0270    76.7355    28.1040      .8472     1.3096     8.2963
 2029.4072     -.0127      .1727     2.3404     1.9743    78.0188    32.8467      .9117     1.2122     8.2957
 2029.5596     -.0113      .1794     2.3406     1.7761    78.2367    38.4509      .9763     1.1350     8.2951
 2029.7120     -.0100      .1806     2.3501     2.0535    77.7913    43.1943     1.0854     1.4128     8.2945
 2029.8644     -.0092      .1754     2.3762     3.9224    76.0518    46.6523     1.2701     1.8135     8.2942
 2030.0168     -.0100      .1688     2.4041     4.6553    75.0167    48.7885     1.5162     2.5861     8.2986
 2030.1692     -.0111      .1640     2.4281     7.2649    75.4086    49.4794     1.7626     3.5315     8.3225
 2030.3216     -.0111      .1663     2.4460    10.6022    76.6250    49.2950     2.0273     4.3673     8.3568
 2030.4740     -.0101      .1789     2.4536    12.0419    77.0784    48.1134     2.3631     5.1292     8.3710
 2030.6264     -.0090      .1887     2.4500     8.8848    76.3036    45.1146     2.6992     5.0660     8.3692
 2030.7788     -.0081      .1755     2.4444     5.3356    73.6787    41.3623     2.9558     4.3695     8.3606
 2030.9312     -.0079      .1575     2.4478     5.9861    71.6633    39.6241     3.0320     4.1909     8.3389
 2031.0836     -.0081      .1521     2.4607     7.3794    71.5369    39.3631     2.9347     4.1981     8.3192
 2031.2360     -.0086      .1695     2.4661     6.1799    72.0361    37.9837     2.7212     4.4366     8.3083
 2031.3884     -.0085      .1799     2.4545     6.8817    72.6499    34.6426     2.5079     4.4554     8.3077
 2031.5408     -.0072      .1745     2.4316     5.3260    72.7251    30.8118     2.3235     4.1833     8.3072
 2031.6932     -.0061      .1555     2.4130     3.4213    72.5532    28.7619     2.1750     3.5369     8.3080
 2031.8456     -.0068      .1425     2.4023     3.2551    73.3778    30.3702     2.0684     2.9936     8.3126
 2031.9980     -.0082      .1388     2.3990     3.2263    75.4911    37.4175     2.0054     2.6947     8.3175
 2032.1504     -.0097      .1493     2.4005     3.3669    77.8852    48.1438     1.9755     2.5749     8.3264
 2032.3028     -.0109      .1747     2.4071     3.6959    79.9128    59.0688     2.0071     2.5643     8.3577
 2032.4552     -.0111      .1994     2.4218     4.1936    81.0962    66.3327     2.0924     2.8751     8.4202
 2032.6076     -.0105      .2142     2.4406     8.6751    81.0765    67.6003     2.2529     3.2492     8.4497
 2032.7600     -.0103      .2041     2.4539     9.4150    79.6112    64.9791     2.4497     3.8350     8.4564
 2032.9124     -.0103      .1863     2.4586     5.2546    77.1139    62.4356     2.6442     4.2946     8.4548
 2033.0648     -.0101      .1745     2.4602     4.3055    75.8823    62.4576     2.7783     4.3712     8.4431
