~VERSION INFORMATION
VERS.                                                 2.0:   CWLS Log ASCII Standard-VERSION 2.0
WRAP.                                                  NO:   One line per depth step
~Well Information Block
STRT.M                                           342.1868:   Top Depth
STOP.M                                          2635.3496:   Bottom Depth
STEP.M                                             .15240:   Depth Increment
NULL.                                            -999.250:   Null Value
FLD .                                              A NAME:   Field Name
WELL.                                             WELL A:   NAME
WBN .                                             WELL A:   WELLBORE
NATI.                                                 NOR:   COUNTRY
CTRY.                                                 NOR:   COUNTRY
COMP.                               	     COMPANY NAME:   OPERATOR
PROV.                                           SOMEWHERE:   PROVINCE
COUN.                                                 RIG:   RIG NAME
SPUD.                                          1970/01/01:   SPUD DATE
LATI.                                       00 00 00.00 N:   SURF. LATITUDE
LONG.                                       00 00 00.00 E:   SURF. LONGITUDE
PBWE.                                              WELL A:   PB WELL ID
PBWB.                                              WELL A:   PB WELLBORE ID
PBWS.                                                 all:   PB WELL NAME SET
~PARAMETER INFORMATION (log)
LNAM.                                           COMPOSITE:   NAME
LTYP.                                         DEPTH MATCH:   LOG TYPE
LSRV.                                              HYBRID:   LOG SERVICE
LSOU.                                                  OD:   LOG SOURCE
LVSN.                                                   1:   LOG VERSION
BHIS.                                                   R:   BRIEF HISTORY
FHIS.                                             RAW-LIS:   FULL HISTORY
LCNM.                                                EXLO:   LOGGING CONTRACTOR
TOOL.                             DIL/BHC/GR (COMPOSITED):   TOOL STRING
QCRM.                                           HQLD data:   QC COMMENT
QCCD.                                                high:   QC LEVEL
QCCO.                                               SIMON:   QC COMPANY
QCST.                                               final:   QC STATUS
~Curve Information Block
#MNEM.UNIT                                        API CODE    No Description
#=========                                        ========    == ===========
DEPT.M                                       00 001 00 00:     1  DEPTH
HDRHO.G/CC                                               :     2  Nuclear Radiation
HNPHI.FRAC                                               :     3  Nuclear Radiation
HRHOB.G/CC                                               :     4  Nuclear Radiation
HRS.OHMM                                                 :     5  Electromagnetic Response
HDT.US/F                                                 :     6  Acoustic Response
HGR.GAPI                                                 :     7  Nuclear Radiation
HRD.OHMM                                                 :     8  Electromagnetic Response
HRM.OHMM                                                 :     9  Electromagnetic Response
HCALI.IN                                                 :    10  Formation Evaluation
~ASCII
# ...
  976.3232     -.0081      .2994     2.3421  -999.2500   116.5000    76.4375     2.4284     2.8406    12.6641
  976.4756     -.0065      .3048     2.3440  -999.2500   116.8125    75.9375     2.4014     2.8177    12.6641
  976.6280     -.0059      .3106     2.3374  -999.2500   116.6250    80.0625     2.3927     2.7769    12.6641
  976.7804     -.0067      .3035     2.3308  -999.2500   116.3750    73.4375     2.4018     2.7086    12.6641
  976.9328     -.0068      .2982     2.3298  -999.2500   116.7500    71.9375     2.4061     2.6854    12.6641
  977.0852     -.0082      .2951     2.3320  -999.2500   116.5000    73.7500     2.4080     2.7323    12.6641
  977.2376     -.0072      .2954     2.3317  -999.2500   116.1250    78.6875     2.4187     2.8311    12.6641
  977.3900     -.0094      .3060     2.3241  -999.2500   117.1875    78.0000     2.4231     2.8694    12.6641
  977.5424     -.0099      .3157     2.3156  -999.2500   117.0000    76.6875     2.4428     2.8488    12.6641
  977.6948     -.0113      .3229     2.3139  -999.2500   116.1250    73.6250     2.4733     2.8325    12.6641
  977.8472     -.0088      .3183     2.3202  -999.2500   115.7500    76.5625     2.5046     2.8204    12.6641
  977.9996     -.0083      .2982     2.3291  -999.2500   114.8125    73.5000     2.5239     2.8501    12.6649
  978.1520     -.0074      .2945     2.3399  -999.2500   114.5000    72.3750     2.5372     2.9302    12.6735
  978.3044     -.0062      .2956     2.3451  -999.2500   114.4375    70.6250     2.5587     3.0164    12.6929
  978.4568     -.0070      .2980     2.3426  -999.2500   114.1875    75.3125     2.5807     3.0820    12.6993
  978.6092     -.0111      .3009     2.3296  -999.2500   114.5625    78.3750     2.5995     3.0932    12.7360
  978.7616     -.0149      .2929     2.3264  -999.2500   114.8750    73.7500     2.6136     3.0788    12.7753
  978.9140     -.0147      .2950     2.3293  -999.2500   114.9375    73.5000     2.6296     3.0582    12.7311
  979.0664     -.0194      .2903     2.3269  -999.2500   115.1875    73.4375     2.6415     3.0348    12.8145
  979.2188     -.0197      .2902     2.3225  -999.2500   115.6250    75.3125     2.6482     3.0194    12.8125
  979.3712     -.0193      .3094     2.3232  -999.2500   114.7500    69.1250     2.6503     3.0333    12.7985
  979.5236     -.0154      .2945     2.3323  -999.2500   114.1250    66.1875     2.6505     3.0426    12.7912
  979.6760     -.0178      .3042     2.3313  -999.2500   113.7500    69.5625     2.6345     3.0504    12.7551
  979.8284     -.0169      .2949     2.3305  -999.2500   113.7500    76.0000     2.6123     3.0473    12.8037
  979.9808     -.0156      .3065     2.3294  -999.2500   114.5000    76.8125     2.5954     3.0179    12.7929
  980.1332     -.0151      .3050     2.3333  -999.2500   115.3750    71.8125     2.5814     2.9861    12.7454
  980.2856     -.0155      .2956     2.3359  -999.2500   115.7500    73.5000     2.5642     2.9418    12.7325
  980.4380     -.0111      .3051     2.3449  -999.2500   116.5000    72.8125     2.5559     2.9447    12.8136
  980.5904     -.0081      .3191     2.3475  -999.2500   115.9375    73.8750     2.5668     2.9187    12.8001
  980.7428     -.0065      .3442     2.3523  -999.2500   115.8125    65.5000     2.5722     2.8447    12.7961
  980.8952     -.0069      .3448     2.3507  -999.2500   115.0000    69.5625     2.5827     2.8365    12.7874
  981.0476     -.0080      .3271     2.3514  -999.2500   114.0625    73.0000     2.5969     2.9359    12.7713
  981.2000     -.0108      .3064     2.3474  -999.2500   113.4375    73.2500     2.6216     3.0932    12.7937
  981.3524     -.0126      .3006     2.3394  -999.2500   112.2500    72.6250     2.6436     3.1589    12.7929
  981.5048     -.0134      .2971     2.3333  -999.2500   112.3750    76.6250     2.6709     3.1623    12.7691
  981.6572     -.0113      .2983     2.3365  -999.2500   112.3125    82.1250     2.7049     3.1775    12.8120
  981.8096     -.0092      .2926     2.3447  -999.2500   113.5000    78.9375     2.7541     3.1758    12.7583
  981.9620     -.0058      .2987     2.3490  -999.2500   113.3125    71.5625     2.7802     3.1724    12.8069
  982.1144     -.0047      .2993     2.3438  -999.2500   113.7500    74.5625     2.7879     3.1489    12.8265
  982.2668     -.0057      .3144     2.3375  -999.2500   114.1875    78.2500     2.7878     3.1522    12.8249
  982.4192     -.0080      .3177     2.3349  -999.2500   113.5000    80.9375     2.7737     3.1623    12.8017
  982.5716     -.0082      .3019     2.3319  -999.2500   112.6250    76.8125     2.7657     3.1556    12.8093
  982.7240     -.0085      .2892     2.3310  -999.2500   112.8125    76.6875     2.7767     3.1013    12.7944
  982.8764     -.0108      .3024     2.3294  -999.2500   112.6250    77.6250     2.8060     3.0302    12.7618
  983.0288     -.0132      .3132     2.3401  -999.2500   111.5000    76.1250     2.8530     2.9966    12.7651
  983.1812     -.0141      .3139     2.3553  -999.2500   110.2500    77.3750     2.8977     3.0011    12.8145
  983.3336     -.0155      .2819     2.3598  -999.2500   111.1875    76.9375     2.9429     3.0820    12.7769
  983.4860     -.0173      .2866     2.3456  -999.2500   111.3125    78.5000     2.9953     3.2647    12.8077
  983.6384     -.0176      .2747     2.3329  -999.2500   111.0625    68.3750     3.0479     3.4604    12.8125
  983.7908     -.0136      .2777     2.3345  -999.2500   110.2500    62.6875     3.0904     3.7108    12.8141
  983.9432     -.0098      .2669     2.3420  -999.2500   108.5000    61.0937     3.1113     3.9212    12.8265
  984.0956     -.0081      .2784     2.3433  -999.2500   108.1875    66.3125     3.0999     4.0193    12.8281
  984.2480     -.0082      .2927     2.3439  -999.2500   110.7500    71.6875     3.0272     3.8477    12.8281
  984.4004     -.0100      .3002     2.3421  -999.2500   112.8125    75.3750     2.9668     3.5598    12.8281
  984.5528     -.0132      .3047     2.3400  -999.2500   115.1875    74.7500     2.9190     3.2576    12.8281
  984.7052     -.0118      .3219     2.3414  -999.2500   115.1250    73.5000     2.8717     3.1094    12.8281
  984.8576     -.0118      .3293     2.3443  -999.2500   114.8125    72.3125     2.8133     3.0804    12.8168
  985.0100     -.0130      .3286     2.3433  -999.2500   114.1250    71.3125     2.7628     3.1241    12.7284
  985.1624     -.0108      .3078     2.3421  -999.2500   114.5000    75.0000     2.7157     3.1606    12.7055
  985.3148     -.0083      .3167     2.3431  -999.2500   114.6875    80.8750     2.6905     3.1356    12.6924
  985.4672     -.0083      .3265     2.3415  -999.2500   114.9375    83.0000     2.6892     3.0836    12.5696
  985.6196     -.0086      .3232     2.3402  -999.2500   114.9375    83.0625     2.6899     3.0441    12.6512
  985.7720     -.0091      .3037     2.3381  -999.2500   114.8750    77.7500     2.6844     3.0209    12.6641
  985.9244     -.0123      .3042     2.3370  -999.2500   115.1875    84.8750     2.6744     2.9966    12.6641
  986.0768     -.0141      .3075     2.3321  -999.2500   114.6250    81.3125     2.6669     2.9682    12.6641
  986.2292     -.0155      .3023     2.3325  -999.2500   114.3125    84.5625     2.6675     2.9637    12.6641
  986.3816     -.0158      .2932     2.3290  -999.2500   114.5625    80.2500     2.6671     2.9846    12.6641
  986.5340     -.0148      .2971     2.3325  -999.2500   113.6875    77.3125     2.6735     3.0317    12.6641
  986.6864     -.0117      .3175     2.3356  -999.2500   113.5000    76.0625     2.6814     3.0724    12.6641
  986.8388     -.0106      .3241     2.3385  -999.2500   113.3125    73.5000     2.6924     3.0772    12.6641
  986.9912     -.0067      .3222     2.3493  -999.2500   113.8750    73.2500     2.6998     3.0724    12.6641
  987.1436     -.0027      .3203     2.3517  -999.2500   113.7500    68.1250     2.7108     3.0756    12.6641
  987.2960      .0009      .3285     2.3555  -999.2500   113.8125    74.1875     2.7165     3.0551    12.6608
