~Version
 VERS              .         3.0                           : CWLS LOG ASCII STANDARD - VERSION 3.0
 WRAP              .         NO                            : ONE LINE PER DEPTH STEP
 DLM               .         SPACE                         : DELIMITING CHARACTER(SPACE TAB OR COMMA)
~Well Information
#_______________________________________________________________________________
#
#PARAMETER_NAME    .UNIT     VALUE                         : DESCRIPTION
#_______________________________________________________________________________
STRT               .m        563.118                       : First reference value
STOP               .m        914.2476                      : Last reference value
STEP               .m        0.1524                        : Step increment
NULL               .         -9999                         : Missing value
COMP               .         SomeCompany                   : Company
WELL               .         Well_E                        : Well name
FLD                .                                       : Field
LOC                .                                       : Location
SRVC               .                                       : Service Company
CTRY               .         NO                            : Country
DATE               .                                       : Service Date
LATI               .deg      70.000000                     : Latitude
LONG               .deg      35.000000                     : Longitude
GDAT               .                                       : Geodetic Datum
Completion_date    .         2020-02-17                    : Completed date
COUNTRY            .         Norway                        : 
EREF               .m        25.0                          : Kelly bushing elevation
DREF               .m        MSL                           : 
HZCS               .         ED50-UTM35                    : UTM zone
LGWN               .         Well_E                        : Wellbore name
OPER               .         SomeCompany                   : Drilling operator group
SPDA               .         2020-02-17                    : Entered date
SHWN               .         Well_E                        : Well name
STAT               .         BARENTS SEA                   : Main area
TD                 .m        930.0                         : Total depth
UWI                .         Well_E                        : NPDID wellbore
Water_depth        .m        400.0                         : Water depth
X                  .m        400000.00                     : EW UTM
Y                  .m        8000000.00                    : NS UTM
~Parameter Information Block
#_______________________________________________________________________________
#
#PARAMETER_NAME    .UNIT     VALUE                         : DESCRIPTION
#_______________________________________________________________________________
SET                .         CPI                           : 
TLFamily_DEPTH     .         Measured Depth                : 
TLFamily_PHIE      .         Effective Porosity            : 
TLFamily_PHIT      .         Total Porosity                : 
TLFamily_SW        .         Water Saturation              : 
TLFamily_VSH       .         Shale Volume Fraction         : 
~Curve Information
#_______________________________________________________________________________
#
#LOGNAME           .UNIT     LOG_ID                        : DESCRIPTION
#_______________________________________________________________________________
DEPTH              .m                                      :  {F}
PHIE_test          .v/v                                    : Porosity {F}
PHIT_test          .v/v                                    : Porosity {F}
SW_test            .v/v                                    :  {F}
VSH_test           .v/v                                    : Vshale {F}
~Ascii
# ...
852.3732   0          0.05838459 1          1         
852.5256   0          0.04706544 1          1         
852.678    0          0.02936919 1          1         
852.8304   0          0.02335619 1          1         
852.9828   0          0.04588027 1          0.9854487 
853.1352   0          0.07932288 1          0.6891751 
853.2876   0.0377393  0.102573   1          0.5251526 
853.44     0.03812714 0.09604265 1          0.4691156 
853.5924   0.009374642 0.0811069  1          0.5810312 
853.7448   0          0.06659266 1          0.6336747 
853.8972   0          0.06054198 1          0.7418368 
854.0496   0          0.06379139 1          0.7372646 
854.202    0          0.07461426 1          0.6603873 
854.3544   0          0.08390494 1          0.6896413 
854.5068   0.002279517 0.08521727 1          0.6717957 
854.6592   0          0.08001606 1          0.8249122 
854.8116   0          0.07858703 1          0.7189761 
854.964    0          0.08285751 1          0.7002124 
855.1164   0.01436629 0.08765002 1          0.5935981 
855.2688   0.0001355124 0.08245309 1          0.6667722 
855.4212   0.002924166 0.0818173  1          0.6390343 
855.5736   0          0.0764445  1          0.7544695 
855.726    0          0.0820753  1          0.7066075 
855.8784   0.004060844 0.0856501  1          0.6608729 
856.0308   0.02859323 0.09517787 1          0.5393355 
856.1832   0.03469017 0.1007389  1          0.5349947 
856.3356   0.03226728 0.1002699  1          0.5508209 
856.488    0.02376827 0.09834942 1          0.6041072 
856.6404   0.00504709 0.08638523 1          0.6588388 
856.7928   0          0.07180931 1          0.6805748 
856.9452   0          0.06091727 1          0.7591938 
857.0976   0          0.06275383 1          0.8513522 
857.25     0          0.06787968 1          0.9431545 
857.4024   0          0.06779947 1          0.936285  
857.5548   0          0.06796356 1          0.9707371 
857.7072   0          0.06985752 1          0.9818347 
857.8596   0          0.07274268 1          0.9655637 
858.012    0          0.06878641 1          0.8956351 
858.1644   0          0.06518526 1          0.9684364 
858.3168   0          0.06348277 1          1         
858.4692   0          0.07367722 1          0.9852185 
858.6216   0          0.08555312 1          0.9011588 
858.774    0          0.08586792 1          0.9045291 
858.9264   0          0.07333034 1          0.9496253 
859.0788   0          0.06089269 1          0.9414643 
859.2312   0          0.05758029 1          0.9061031 
859.3836   0          0.06321918 1          0.8961905 
859.536    0          0.07008093 1          0.6906271 
859.6884   0.01495674 0.07378156 1          0.476481  
859.8408   0.03478047 0.07947785 1          0.3620487 
859.9932   0.04753862 0.09066925 1          0.349358  
860.1456   0.04865308 0.1011198  1          0.4249803 
860.298    0.02754172 0.09600865 1          0.5545821 
860.4504   0.0003614411 0.07837171 1          0.6318831 
860.6028   0.009100695 0.07640991 1          0.5452046 
860.7552   0.04378805 0.09859446 1          0.4439319 
860.9076   0.07444827 0.1254161  1          0.4128395 
861.06     0.08436948 0.1352235  1          0.4119176 
861.2124   0.08181548 0.1349748  1          0.4305902 
861.3648   0.0859165  0.1345489  1          0.3939222 
861.5172   0.0903632  0.1408587  1          0.4090135 
861.6696   0.08729887 0.1412964  1          0.4373799 
861.822    0.07472017 0.1330451  1          0.4724316 
861.9744   0.0625307  0.1242735  1          0.5001163 
862.1268   0.07746217 0.1288482  1          0.4162265 
862.2792   0.1000475  0.1407957  1          0.3300609 
862.4316   0.1102358  0.1460574  1          0.290155  
862.584    0.0882832  0.131392   1          0.3491815 
862.7364   0.03955653 0.1040378  1          0.522298  
862.8888   0          0.08050188 1          0.7044916 
863.0412   0          0.07533835 1          0.8720384 
863.1936   0          0.06386056 1          0.823019  
863.346    0          0.04326237 1          0.8425997 
863.4984   0          0          1          1         
863.6508   0          0          1          1         
863.8032   0          0          1          1         
863.9556   0          0.005280235 1          1         
864.108    0          0.001857457 1          1         
864.2604   0          0.02275558 1          1         
864.4128   0          0.04415997 1          1         
864.5652   0          0.0625469  1          0.9790826 
864.7176   0          0.05486423 1          0.9991479 
864.87     0          0.0569476  1          1         
865.0224   0          0.06352662 1          0.9643026 
865.1748   0          0.05878828 1          0.8842719 
865.3272   0          0.04868522 1          0.9544334 
865.4796   0          0.04418897 1          1         
865.632    0          0.06310498 1          0.8991288 
865.7844   0          0.08393525 1          0.7168869 
865.9368   0.01798619 0.09258838 1          0.6042776 
866.0892   0.003958405 0.09090193 1          0.7042425 
866.2416   0.01610807 0.09570622 1          0.6447449 
866.394    0.03305557 0.1095532  1          0.6196305 
866.5464   0.06233986 0.122684   1          0.4887876 
866.6988   0.0727307  0.134608   1          0.5012063 
866.8512   0.103849   0.1516291  1          0.3870187 
867.0036   0.1319     0.1744217  1          0.3444259 
867.156    0.1723123  0.1928315  1          0.1662052 
867.3084   0.1917859  0.2029198  1          0.09018487
867.4608   0.1977149  0.2030976  0.9760541  0.04360013
867.6132   0.1844232  0.1955661  1          0.09025745
867.7656   0.1603116  0.1828339  1          0.1824309 
867.918    0.1389485  0.166747   1          0.2251675 
868.0704   0.1147593  0.1487099  1          0.2749998 
868.2228   0.06272822 0.1090896  1          0.3755271 
868.3752   0.007889954 0.07406855 1          0.5360466 
868.5276   0          0.03890873 1          0.7567791 
868.68     0          0.04593281 1          0.8243067 
868.8324   0          0.05144631 1          0.8185108 
868.9848   0          0.04954514 1          0.8502346 
869.1372   0          0.02854268 1          0.8853003 
869.2896   0          0.0100358  1          1         
869.442    0          0.01830127 1          1         
869.5944   0          0.02980938 1          1         
869.7468   0          0.04640744 1          1         
869.8992   0          0.04900811 1          0.9798782 
870.0516   0          0.05640807 1          0.9800922 
870.204    0          0.06116305 1          0.9082223 
870.3564   0          0.06249392 1          0.7794587 
870.5088   0          0.0678136  1          0.6493978 
870.6612   0.009622168 0.07567538 1          0.5350309 
870.8136   0.04779135 0.09923466 1          0.4166908 
870.966    0.06256937 0.1106161  1          0.3891781 
871.1184   0.05605824 0.1127272  1          0.4590188 
871.2708   0.03834583 0.1033278  1          0.526354  
871.4232   0.02667373 0.09747037 1          0.5734527 
871.5756   0.03531861 0.09863582 1          0.5128694 
871.728    0.03083287 0.09796486 1          0.543769  
871.8804   0.02561015 0.09742474 1          0.5816981 
872.0328   0.01599576 0.09447159 1          0.6356542 
872.1852   0.02612416 0.1005605  1          0.6029345 
872.3376   0.04517955 0.1093501  1          0.5197812 
872.49     0.04418354 0.108276   1          0.519149  
872.6424   0.02048667 0.09223767 1          0.581183  
872.7948   0.01775011 0.09109017 1          0.5940543 
872.9472   0.05296321 0.1142352  1          0.4963027 
873.0996   0.09995598 0.1472853  1          0.3833671 
873.252    0.1226063  0.1669524  1          0.3592037 
873.4044   0.1430675  0.1797816  1          0.2973841 
873.5568   0.159522   0.1918279  1          0.2616774 
873.7092   0.1711303  0.199213   1          0.2274697 
873.8616   0.171879   0.20101    1          0.235961  
874.014    0.1578601  0.1959007  1          0.3081289 
874.1664   0.1277895  0.168934   1          0.3332704 
874.3188   0.07508747 0.1286014  1          0.4334624 
874.4712   0.03646485 0.09730435 1          0.4927999 
