~Version
 VERS              .         3.0                           : CWLS LOG ASCII STANDARD - VERSION 3.0
 WRAP              .         NO                            : ONE LINE PER DEPTH STEP
 DLM               .         SPACE                         : DELIMITING CHARACTER(SPACE TAB OR COMMA)
~Well Information
#_______________________________________________________________________________
#
#PARAMETER_NAME    .UNIT     VALUE                         : DESCRIPTION
#_______________________________________________________________________________
STRT               .m        563.118                       : First reference value
STOP               .m        914.2476                      : Last reference value
STEP               .m        0.1524                        : Step increment
NULL               .         -9999                         : Missing value
COMP               .         SomeCompany                   : Company
WELL               .         Well_E                        : Well name
FLD                .                                       : Field
LOC                .                                       : Location
SRVC               .                                       : Service Company
CTRY               .         NO                            : Country
DATE               .                                       : Service Date
LATI               .deg      70.000000                     : Latitude
LONG               .deg      35.000000                     : Longitude
GDAT               .                                       : Geodetic Datum
Completion_date    .         2020-02-17                    : Completed date
COUNTRY            .         Norway                        : 
EREF               .m        25.0                          : Kelly bushing elevation
DREF               .m        MSL                           : 
HZCS               .         ED50-UTM35                    : UTM zone
LGWN               .         Well_E                        : Wellbore name
OPER               .         SomeCompany                   : Drilling operator group
SPDA               .         2020-02-17                    : Entered date
SHWN               .         Well_E                        : Well name
STAT               .         BARENTS SEA                   : Main area
TD                 .m        930.0                         : Total depth
UWI                .         Well_E                        : NPDID wellbore
Water_depth        .m        400.0                         : Water depth
X                  .m        400000.00                     : EW UTM
Y                  .m        8000000.00                    : NS UTM
~Parameter Information Block
#_______________________________________________________________________________
#
#PARAMETER_NAME    .UNIT     VALUE                         : DESCRIPTION
#_______________________________________________________________________________
SET                .         CPI                           : 
TLFamily_DEPTH     .         Measured Depth                : 
TLFamily_PHIE      .         Effective Porosity            : 
TLFamily_PHIT      .         Total Porosity                : 
TLFamily_SW        .         Water Saturation              : 
TLFamily_VSH       .         Shale Volume Fraction         : 
~Curve Information
#_______________________________________________________________________________
#
#LOGNAME           .UNIT     LOG_ID                        : DESCRIPTION
#_______________________________________________________________________________
DEPTH              .m                                      :  {F}
PHIE_test          .v/v                                    : Porosity {F}
PHIT_test          .v/v                                    : Porosity {F}
SW_test            .v/v                                    :  {F}
VSH_test           .v/v                                    : Vshale {F}
~Ascii
# ...
696.6204   0.166886   0.1953137  0.5432056  0.2302644 
696.7728   0.1305463  0.1656395  0.6577449  0.284255  
696.9252   0.09774616 0.1383902  0.8661479  0.3292166 
697.0776   0.09383306 0.1311464  0.9088938  0.302238  
697.23     0.1031881  0.1391914  0.7341421  0.291627  
697.3824   0.1016475  0.1370186  0.70897    0.2865053 
697.5348   0.07671367 0.1141667  0.5509982  0.3033697 
697.6872   0.0649272  0.09380372 0.4424723  0.2338998 
697.8396   0.08676828 0.1015685  0.3903702  0.1198819 
697.992    0.1416816  0.1416816  0.5239487  0         
698.1444   0.1775897  0.179655   0.5308433  0.01672865
698.2968   0.183421   0.2000766  0.518391   0.1349105 
698.4492   0.1703095  0.2012581  0.5516649  0.2506837 
698.6016   0.1644557  0.190121   0.5934606  0.2078889 
698.754    0.1607397  0.1816785  0.5997909  0.1696038 
698.9064   0.1592845  0.1786353  0.6137307  0.1567407 
699.0588   0.1504307  0.1744988  0.664772   0.1949517 
699.2112   0.1245706  0.1624803  0.8097734  0.3070686 
699.3636   0.09037464 0.1412773  0.8266439  0.4123112 
699.516    0.07703796 0.123547   0.8252712  0.3767234 
699.6684   0.06963775 0.1097235  1          0.3246942 
699.8208   0.06065526 0.1018605  0.9644555  0.3337624 
699.9732   0.06228549 0.09596112 0.7742352  0.2727726 
700.1256   0.06456997 0.09064703 0.8060029  0.2112242 
700.278    0.0726497  0.08909024 0.5766374  0.1331683 
700.4304   0.08603382 0.09880433 0.5049632  0.1034411 
700.5828   0.1222647  0.1249162  0.5161018  0.02147653
700.7352   0.1625532  0.1625532  0.5539502  0         
700.8876   0.1970759  0.1970759  0.4751255  0         
701.04     0.2197321  0.2197321  0.3994532  0         
701.1924   0.2312775  0.2317796  0.3917491  0.004067488
701.3448   0.2312026  0.2386284  0.4420866  0.06014923
701.4972   0.2317311  0.24196    0.431495   0.08285409
701.6496   0.2181838  0.2337074  0.4752723  0.1257418 
701.802    0.1949082  0.21735    0.4995239  0.1817787 
701.9544   0.1733277  0.2013482  0.5649204  0.226966  
702.1068   0.1502888  0.1892174  0.6631221  0.3153214 
702.2592   0.1254207  0.176484   0.8748202  0.4136127 
702.4116   0.09716978 0.1553365  1          0.4711501 
702.564    0.09721372 0.1424217  0.9042081  0.3661844 
702.7164   0.09801377 0.1427069  0.8967297  0.3620143 
702.8688   0.1205179  0.161368   0.7919239  0.3308855 
703.0212   0.1493743  0.1904279  0.627794   0.332534  
703.1736   0.1840684  0.2176563  0.6296754  0.2720616 
703.326    0.2056829  0.2309438  0.6295677  0.2046135 
703.4784   0.1901529  0.2146106  0.6711311  0.1981068 
703.6308   0.1292745  0.1775253  0.8832392  0.3908314 
703.7832   0.06857973 0.1408229  1          0.5851699 
703.9356   0.04700916 0.130213   1          0.6739513 
704.088    0.06882694 0.1452803  1          0.6192725 
704.2404   0.119239   0.1692957  0.8116182  0.4054593 
704.3928   0.1527668  0.186892   0.7468275  0.2764145 
704.5452   0.1678887  0.1977118  0.685915   0.241567  
704.6976   0.1498961  0.1903185  0.7010285  0.3274211 
704.85     0.1106757  0.170542   0.9113916  0.4849169 
705.0024   0.08691736 0.1527476  1          0.5332245 
705.1548   0.08514857 0.1515365  1          0.537742  
705.3072   0.09448075 0.153529   1          0.4782911 
705.4596   0.08655749 0.1556155  1          0.5593697 
705.612    0.07794897 0.1558254  1          0.6307986 
705.7644   0.07796673 0.1575543  1          0.6446595 
705.9168   0.08122723 0.1555883  1          0.6023243 
706.0692   0.07087756 0.1463685  1          0.6114768 
706.2216   0.04704775 0.1342285  1          0.7061637 
706.374    0.0314822  0.1248006  1          0.7558792 
706.5264   0.03774073 0.1229698  1          0.6903555 
706.6788   0.05377235 0.1252346  1          0.5788445 
706.8312   0.05189973 0.1226951  1          0.573442  
706.9836   0.04657245 0.121408   1          0.6061681 
707.136    0.04963556 0.1170654  1          0.5461819 
707.2884   0.04438901 0.1128334  1          0.5543991 
707.4408   0.0266022  0.1048587  1          0.6338775 
707.5932   0.01201776 0.09863023 1          0.7015609 
707.7456   0.0008423692 0.09573771 1          0.7686521 
707.898    0          0.09237969 1          0.8113381 
708.0504   0          0.09291363 1          0.8295633 
708.2028   0.02121887 0.1078507  1          0.7017177 
708.3552   0.07410885 0.1376136  1          0.5143882 
708.5076   0.1345623  0.1750063  1          0.3275961 
708.66     0.174905   0.2049692  0.9374864  0.2435197 
708.8124   0.2068243  0.2221204  0.8466939  0.1238984 
708.9648   0.2152338  0.2282284  0.903016   0.1052564 
709.1172   0.2114614  0.2248821  0.8556443  0.1087077 
709.2696   0.1937862  0.2225458  0.990785   0.2329524 
709.422    0.1883942  0.2206143  0.9848774  0.260983  
709.5744   0.1737895  0.2136932  0.9243562  0.3232204 
709.7268   0.1629036  0.2005185  0.9515303  0.3046813 
709.8792   0.1424214  0.1881939  1          0.3707577 
710.0316   0.1329802  0.1756402  1          0.3455456 
710.184    0.1125055  0.1646457  1          0.4223357 
710.3364   0.09973691 0.1536852  1          0.4369811 
710.4888   0.08600283 0.1475914  1          0.4988673 
710.6412   0.08697035 0.1546841  1          0.5484809 
710.7936   0.09203563 0.1665051  1          0.6032022 
710.946    0.1004709  0.1703704  1          0.5661855 
711.0984   0.1163356  0.1729092  1          0.4582463 
711.2508   0.1417287  0.1909062  1          0.398337  
711.4032   0.1868114  0.2202402  1          0.2707729 
711.5556   0.2132519  0.2396747  0.9609193  0.214024  
711.708    0.2095159  0.2359321  0.9703285  0.2139716 
711.8604   0.1928259  0.2220642  0.8931957  0.2368305 
712.0128   0.1758783  0.2075685  0.9074888  0.256691  
712.1652   0.1444728  0.1838815  1          0.3192102 
712.3176   0.1265746  0.1689593  1          0.343316  
712.47     0.08690161 0.1474482  1          0.4904272 
712.6224   0.09967968 0.1480303  1          0.3916396 
712.7748   0.1277158  0.1619383  1          0.2772022 
712.9272   0.1788523  0.1907488  1          0.09636215
713.0796   0.1786917  0.196471   1          0.1440127 
713.232    0.1365293  0.1774093  0.9165642  0.3311276 
713.3844   0.09178694 0.1478561  1          0.4541605 
713.5368   0.05503485 0.1310921  1          0.6160635 
713.6892   0.03661869 0.1241309  1          0.7088484 
713.8416   0.01447489 0.1148531  1          0.8130637 
713.994    0          0.1008019  1          0.8248803 
714.1464   0          0.08709827 1          0.8632998 
714.2988   0          0.07235503 1          0.9389879 
714.4512   0          0.07136235 1          0.9348351 
714.6036   0          0.07860807 1          0.9032846 
714.756    0          0.1027038  1          0.8728592 
714.9084   0.05161719 0.1347531  1          0.6734011 
715.0608   0.1169643  0.1725049  1          0.4498794 
715.2132   0.18186    0.2133396  1          0.2549846 
715.3656   0.2153963  0.2385376  0.994358   0.1874448 
715.518    0.2290317  0.2459242  1          0.1368294 
715.6704   0.215888   0.2395075  0.9468325  0.1913175 
715.8228   0.2045809  0.2253353  0.9320765  0.1681105 
715.9752   0.1812161  0.2158321  0.989536   0.2803894 
716.1276   0.1668659  0.2069896  0.9480132  0.3250018 
716.28     0.1436804  0.1979057  1          0.4392247 
716.4324   0.131769   0.1848352  1          0.4298357 
716.5848   0.1163683  0.1747729  1          0.4730772 
716.7372   0.1124512  0.1748117  1          0.5051205 
716.8896   0.1045789  0.1730321  1          0.5544708 
717.042    0.09075984 0.1650217  1          0.601521  
717.1944   0.07216879 0.1506847  1          0.6359784 
717.3468   0.05667028 0.1354353  1          0.6379964 
717.4992   0.04546224 0.1253661  1          0.647221  
717.6516   0.02878888 0.1142796  1          0.6924748 
717.804    0.02080972 0.1086457  1          0.7114715 
717.9564   0.009975908 0.09951738 1          0.7252858 
718.1088   0.008928727 0.09499567 1          0.6971421 
718.2612   0.001800909 0.09120246 1          0.7241524 
718.4136   0          0.08160685 1          0.7565017 
718.566    0          0.07173146 1          0.7804745 
718.7184   0          0.05844757 1          0.7368647 
