#----------------------------------------------------------------------------
~VERSION INFORMATION
VERS.            2.0                  :CWLS LOG ASCII STANDARD -VERSION 2.0
WRAP.            NO                   :ONE LINE PER DEPTH STEP
#
# Created by marten, at DESKTOP-7JFC02N, on 2020-03-17T21:40:57.014521, using version XXX
# NOTE: Some notes for well A
# Written to las on: 2020-03-17T21:52:46.162651
# Modified on: 2020-03-17T21:40:57.273821
#  Modification: sw: None, Test data generated from VCL
#--------------------------------------------------------------------
~WELL INFORMATION
#MNEM .UNIT      DATA                 :DESCRIPTION OF MNEMONIC
#----------      ------------         -------------------------------
STRT   .m        295.0                :START DEPTH
STOP   .m        2636.1688            :STOP DEPTH
STEP   .m        0.1524               :STEP DEPTH
WELL   .         Well_F               :WELL
NULL   .         -999.25              :NULL VALUE
COMP   .                              :COMPANY
WELL   .         Well_F               :WELL
LOC    .         Norway               :LOCATION - AREA
FLD    .                              :FIELD
CTRY   .         nor                  :COUNTRY
DATE   .                              :WELL DATE
XWELL  .m        0                    :X POS
YWELL  .m        0                    :Y POS
EDF    .         24.0                 :DERRICK FLOOR ELEVATION
#
# ----------------------------------------------------------------------------
~CURVE INFORMATION
# MNEM.UNIT                                         : CURVE DESCRIPTION
# ----------                                        -------------------------------
DEPTH               .m                                : 1        DEPTH
VP_DRY              .m/s                              : 2        Vp
VP_SG08             .m/s                              : 3        Vp
VP_SO08             .m/s                              : 4        Vp
VS_DRY              .m/s                              : 5        Vs
VS_SG08             .m/s                              : 6        Vs
VS_SO08             .m/s                              : 7        Vs
RHO_DRY             .g/cm3                            : 8        Rho
RHO_SG08            .g/cm3                            : 9        Rho
RHO_SO08            .g/cm3                            : 10       Rho
PHIE                .fract                            : 11       Por
VCL                 .fract                            : 12       Volume
SW                  .fract                            : 13       Fake water saturation
#
# ----------------------------------------------------------------------------
~A                  VP_DRY              VP_SG08             VP_SO08             VS_DRY              VS_SG08             VS_SO08             RHO_DRY             RHO_SG08            RHO_SO08            PHIE                VCL                 SW                  
# ...
1272.9508           2797.1205           2797.1205           2797.1205           1393.4524           1393.4524           1393.4524           2.362               2.362               2.362               -999.25             0.8005              1.0                 
1273.1032           2748.2813           2748.2813           2748.2813           1354.1779           1354.1779           1354.1779           2.3597              2.3597              2.3597              -999.25             0.8556              1.0                 
1273.2556           2708.7616           2708.7616           2708.7616           1322.3977           1322.3977           1322.3977           2.3535              2.3535              2.3535              -999.25             0.8746              1.0                 
1273.408            2702.0151           2702.0151           2702.0151           1316.9724           1316.9724           1316.9724           2.3477              2.3477              2.3477              -999.25             0.8619              1.0                 
1273.5604           2707.6416           2707.6416           2707.6416           1321.4971           1321.4971           1321.4971           2.3425              2.3425              2.3425              -999.25             0.8319              1.0                 
1273.7128           2715.7436           2715.7436           2715.7436           1328.0124           1328.0124           1328.0124           2.3435              2.3435              2.3435              -999.25             0.8356              1.0                 
1273.8652           2720.8577           2720.8577           2720.8577           1332.1249           1332.1249           1332.1249           2.3514              2.3514              2.3514              -999.25             0.8595              1.0                 
1274.0176           2719.9113           2719.9113           2719.9113           1331.3638           1331.3638           1331.3638           2.3567              2.3567              2.3567              -999.25             0.8772              1.0                 
1274.17             2715.3654           2715.3654           2715.3654           1327.7083           1327.7083           1327.7083           2.3544              2.3544              2.3544              -999.25             0.8645              1.0                 
1274.3224           2706.1401           2706.1401           2706.1401           1320.2896           1320.2896           1320.2896           2.3483              2.3483              2.3483              -999.25             0.8641              1.0                 
1274.4748           2703.8895           2703.8895           2703.8895           1318.4798           1318.4798           1318.4798           2.3466              2.3466              2.3466              -999.25             0.8537              1.0                 
1274.6272           2706.5177           2706.5177           2706.5177           1320.5933           1320.5933           1320.5933           2.3473              2.3473              2.3473              -999.25             0.867               1.0                 
1274.7796           2709.3345           2709.3345           2709.3345           1322.8585           1322.8585           1322.8585           2.348               2.348               2.348               -999.25             0.8561              1.0                 
1274.932            2714.427            2714.427            2714.427            1326.9536           1326.9536           1326.9536           2.3378              2.3378              2.3378              -999.25             0.8037              1.0                 
1275.0844           2725.7935           2725.7935           2725.7935           1336.0941           1336.0941           1336.0941           2.3302              2.3302              2.3302              -999.25             0.7705              0.9704999999999999  
1275.2368           2736.904            2736.904            2736.904            1345.0287           1345.0287           1345.0287           2.3314              2.3314              2.3314              -999.25             0.7669              0.9669000000000001  
1275.3892           2744.0152           2744.0152           2744.0152           1350.7473           1350.7473           1350.7473           2.3348              2.3348              2.3348              -999.25             0.7738              0.9738              
1275.5416           2737.0861           2737.0861           2737.0861           1345.1751           1345.1751           1345.1751           2.3326              2.3326              2.3326              -999.25             0.7654              0.9654              
1275.694            2729.4265           2729.4265           2729.4265           1339.0157           1339.0157           1339.0157           2.3288              2.3288              2.3288              -999.25             0.7677              0.9677              
1275.8464           2715.9294           2715.9294           2715.9294           1328.1618           1328.1618           1328.1618           2.3307              2.3307              2.3307              -999.25             0.803               1.0                 
1275.9988           2708.7709           2708.7709           2708.7709           1322.4052           1322.4052           1322.4052           2.3338              2.3338              2.3338              -999.25             0.8099              1.0                 
1276.1512           2706.7012           2706.7012           2706.7012           1320.7409           1320.7409           1320.7409           2.3316              2.3316              2.3316              -999.25             0.8061              1.0                 
1276.3036           2717.2431           2717.2431           2717.2431           1329.2182           1329.2182           1329.2182           2.3305              2.3305              2.3305              -999.25             0.9568              1.0                 
1276.456            2754.4585           2754.4585           2754.4585           1359.1453           1359.1453           1359.1453           2.3352              2.3352              2.3352              -999.25             1.0                 1.0                 
1276.6084           2796.9507           2796.9507           2796.9507           1393.3159           1393.3159           1393.3159           2.3466              2.3466              2.3466              -999.25             1.0                 1.0                 
1276.7608           2837.6271           2837.6271           2837.6271           1426.0262           1426.0262           1426.0262           2.3577              2.3577              2.3577              -999.25             1.0                 1.0                 
1276.9132           2864.2774           2864.2774           2864.2774           1447.4573           1447.4573           1447.4573           2.3653              2.3653              2.3653              -999.25             1.0                 1.0                 
1277.0656           2884.3963           2884.3963           2884.3963           1463.6361           1463.6361           1463.6361           2.3704              2.3704              2.3704              -999.25             1.0                 1.0                 
1277.218            2955.9238           2955.9238           2955.9238           1521.1557           1521.1557           1521.1557           2.3815              2.3815              2.3815              -999.25             0.9656              1.0                 
1277.3704           3022.0247           3022.0247           3022.0247           1574.3114           1574.3114           1574.3114           2.3917              2.3917              2.3917              -999.25             0.9805              1.0                 
1277.5228           3028.8435           3028.8435           3028.8435           1579.7948           1579.7948           1579.7948           2.3985              2.3985              2.3985              -999.25             0.9636              1.0                 
