#----------------------------------------------------------------------------
~VERSION INFORMATION
VERS.            2.0                  :CWLS LOG ASCII STANDARD -VERSION 2.0
WRAP.            NO                   :ONE LINE PER DEPTH STEP
#
# Created by marten, at DESKTOP-7JFC02N, on 2020-03-17T21:40:57.014521, using version XXX
# NOTE: Some notes for well A
# Written to las on: 2020-03-17T21:52:46.162651
# Modified on: 2020-03-17T21:40:57.273821
#  Modification: sw: None, Test data generated from VCL
#--------------------------------------------------------------------
~WELL INFORMATION
#MNEM .UNIT      DATA                 :DESCRIPTION OF MNEMONIC
#----------      ------------         -------------------------------
STRT   .m        295.0                :START DEPTH
STOP   .m        2636.1688            :STOP DEPTH
STEP   .m        0.1524               :STEP DEPTH
WELL   .         Well_F               :WELL
NULL   .         -999.25              :NULL VALUE
COMP   .                              :COMPANY
WELL   .         Well_F               :WELL
LOC    .         Norway               :LOCATION - AREA
FLD    .                              :FIELD
CTRY   .         nor                  :COUNTRY
DATE   .                              :WELL DATE
XWELL  .m        0                    :X POS
YWELL  .m        0                    :Y POS
EDF    .         24.0                 :DERRICK FLOOR ELEVATION
#
# ----------------------------------------------------------------------------
~CURVE INFORMATION
# MNEM.UNIT                                         : CURVE DESCRIPTION
# ----------                                        -------------------------------
DEPTH               .m                                : 1        DEPTH
VP_DRY              .m/s                              : 2        Vp
VP_SG08             .m/s                              : 3        Vp
VP_SO08             .m/s                              : 4        Vp
VS_DRY              .m/s                              : 5        Vs
VS_SG08             .m/s                              : 6        Vs
VS_SO08             .m/s                              : 7        Vs
RHO_DRY             .g/cm3                            : 8        Rho
RHO_SG08            .g/cm3                            : 9        Rho
RHO_SO08            .g/cm3                            : 10       Rho
PHIE                .fract                            : 11       Por
VCL                 .fract                            : 12       Volume
SW                  .fract                            : 13       Fake water saturation
#
# ----------------------------------------------------------------------------
~A                  VP_DRY              VP_SG08             VP_SO08             VS_DRY              VS_SG08             VS_SO08             RHO_DRY             RHO_SG08            RHO_SO08            PHIE                VCL                 SW                  
# ...
1121.77             2810.4214           2810.4214           2810.4214           1404.1485           1404.1485           1404.1485           2.3676              2.3676              2.3676              -999.25             0.7996              0.9996              
1121.9224           2814.0776           2814.0776           2814.0776           1407.0886           1407.0886           1407.0886           2.3784              2.3784              2.3784              -999.25             0.8067              1.0                 
1122.0748           2840.9382           2840.9382           2840.9382           1428.6889           1428.6889           1428.6889           2.3629              2.3629              2.3629              -999.25             0.7502              0.9501999999999999  
1122.2272           2812.2326           2812.2326           2812.2326           1405.605            1405.605            1405.605            2.3393              2.3393              2.3393              -999.25             0.7161              0.9160999999999999  
1122.3796           2737.6617           2737.6617           2737.6617           1345.638            1345.638            1345.638            2.3311              2.3311              2.3311              -999.25             0.7511              0.9511000000000001  
1122.532            2733.2519           2733.2519           2733.2519           1342.0918           1342.0918           1342.0918           2.3428              2.3428              2.3428              -999.25             0.8098              1.0                 
1122.6844           2722.9448           2722.9448           2722.9448           1333.8033           1333.8033           1333.8033           2.3414              2.3414              2.3414              -999.25             0.817               1.0                 
1122.8368           2713.6687           2713.6687           2713.6687           1326.3439           1326.3439           1326.3439           2.3348              2.3348              2.3348              -999.25             0.8102              1.0                 
1122.9892           2702.9508           2702.9508           2702.9508           1317.7249           1317.7249           1317.7249           2.3322              2.3322              2.3322              -999.25             0.8165              1.0                 
1123.1416           2691.5809           2691.5809           2691.5809           1308.5817           1308.5817           1308.5817           2.3414              2.3414              2.3414              -999.25             0.8536              1.0                 
1123.294            2696.5999           2696.5999           2696.5999           1312.6178           1312.6178           1312.6178           2.3531              2.3531              2.3531              -999.25             0.8905              1.0                 
1123.4464           2702.0152           2702.0152           2702.0152           1316.9725           1316.9725           1316.9725           2.3565              2.3565              2.3565              -999.25             0.892               1.0                 
1123.5988           2712.1578           2712.1578           2712.1578           1325.1288           1325.1288           1325.1288           2.3539              2.3539              2.3539              -999.25             0.872               1.0                 
1123.7512           2723.8971           2723.8971           2723.8971           1334.5691           1334.5691           1334.5691           2.3548              2.3548              2.3548              -999.25             0.8659              1.0                 
1123.9036           2715.5601           2715.5601           2715.5601           1327.8648           1327.8648           1327.8648           2.3582              2.3582              2.3582              -999.25             0.8832              1.0                 
1124.056            2693.7979           2693.7979           2693.7979           1310.3645           1310.3645           1310.3645           2.36                2.36                2.36                -999.25             0.9166              1.0                 
1124.2084           2682.5187           2682.5187           2682.5187           1301.2943           1301.2943           1301.2943           2.3578              2.3578              2.3578              -999.25             0.9229              1.0                 
1124.3608           2680.4618           2680.4618           2680.4618           1299.6402           1299.6402           1299.6402           2.3552              2.3552              2.3552              -999.25             0.9261              1.0                 
1124.5132           2659.4709           2659.4709           2659.4709           1282.7601           1282.7601           1282.7601           2.3548              2.3548              2.3548              -999.25             0.9445              1.0                 
1124.6656           2653.1384           2653.1384           2653.1384           1277.6678           1277.6678           1277.6678           2.3515              2.3515              2.3515              -999.25             0.9434              1.0                 
1124.818            2652.7717           2652.7717           2652.7717           1277.3729           1277.3729           1277.3729           2.342               2.342               2.342               -999.25             0.9179              1.0                 
1124.9704           2650.6238           2650.6238           2650.6238           1275.6456           1275.6456           1275.6456           2.3282              2.3282              2.3282              -999.25             0.8717              1.0                 
1125.1228           2661.1018           2661.1018           2661.1018           1284.0716           1284.0716           1284.0716           2.3164              2.3164              2.3164              -999.25             0.8221              1.0                 
1125.2752           2662.0091           2662.0091           2662.0091           1284.8012           1284.8012           1284.8012           2.3131              2.3131              2.3131              -999.25             0.8067              1.0                 
1125.4276           2663.099            2663.099            2663.099            1285.6777           1285.6777           1285.6777           2.3136              2.3136              2.3136              -999.25             0.8074              1.0                 
1125.58             2668.7454           2668.7454           2668.7454           1290.2183           1290.2183           1290.2183           2.3208              2.3208              2.3208              -999.25             0.8203              1.0                 
1125.7324           2676.2548           2676.2548           2676.2548           1296.2571           1296.2571           1296.2571           2.3298              2.3298              2.3298              -999.25             0.8424              1.0                 
1125.8848           2675.8838           2675.8838           2675.8838           1295.9587           1295.9587           1295.9587           2.3379              2.3379              2.3379              -999.25             0.8681              1.0                 
1126.0372           2674.4208           2674.4208           2674.4208           1294.7823           1294.7823           1294.7823           2.3425              2.3425              2.3425              -999.25             0.8843              1.0                 
1126.1896           2683.0622           2683.0622           2683.0622           1301.7313           1301.7313           1301.7313           2.3471              2.3471              2.3471              -999.25             0.8889              1.0                 
1126.342            2687.4875           2687.4875           2687.4875           1305.2899           1305.2899           1305.2899           2.3478              2.3478              2.3478              -999.25             0.886               1.0                 
