~Version
 VERS              .         3.0                           : CWLS LOG ASCII STANDARD - VERSION 3.0
 WRAP              .         NO                            : ONE LINE PER DEPTH STEP
 DLM               .         SPACE                         : DELIMITING CHARACTER(SPACE TAB OR COMMA)
~Well Information
#_______________________________________________________________________________
#
#PARAMETER_NAME    .UNIT     VALUE                         : DESCRIPTION
#_______________________________________________________________________________
STRT               .m        563.118                       : First reference value
STOP               .m        914.2476                      : Last reference value
STEP               .m        0.1524                        : Step increment
NULL               .         -9999                         : Missing value
COMP               .         SomeCompany                   : Company
WELL               .         Well_E                        : Well name
FLD                .                                       : Field
LOC                .                                       : Location
SRVC               .                                       : Service Company
CTRY               .         NO                            : Country
DATE               .                                       : Service Date
LATI               .deg      70.000000                     : Latitude
LONG               .deg      35.000000                     : Longitude
GDAT               .                                       : Geodetic Datum
Completion_date    .         2020-02-17                    : Completed date
COUNTRY            .         Norway                        : 
EREF               .m        25.0                          : Kelly bushing elevation
DREF               .m        MSL                           : 
HZCS               .         ED50-UTM35                    : UTM zone
LGWN               .         Well_E                        : Wellbore name
OPER               .         SomeCompany                   : Drilling operator group
SPDA               .         2020-02-17                    : Entered date
SHWN               .         Well_E                        : Well name
STAT               .         BARENTS SEA                   : Main area
TD                 .m        930.0                         : Total depth
UWI                .         Well_E                        : NPDID wellbore
Water_depth        .m        400.0                         : Water depth
X                  .m        400000.00                     : EW UTM
Y                  .m        8000000.00                    : NS UTM
~Parameter Information Block
#_______________________________________________________________________________
#
#PARAMETER_NAME    .UNIT     VALUE                         : DESCRIPTION
#_______________________________________________________________________________
SET                .         CPI                           : 
TLFamily_DEPTH     .         Measured Depth                : 
TLFamily_PHIE      .         Effective Porosity            : 
TLFamily_PHIT      .         Total Porosity                : 
TLFamily_SW        .         Water Saturation              : 
TLFamily_VSH       .         Shale Volume Fraction         : 
~Curve Information
#_______________________________________________________________________________
#
#LOGNAME           .UNIT     LOG_ID                        : DESCRIPTION
#_______________________________________________________________________________
DEPTH              .m                                      :  {F}
PHIE_test          .v/v                                    : Porosity {F}
PHIT_test          .v/v                                    : Porosity {F}
SW_test            .v/v                                    :  {F}
VSH_test           .v/v                                    : Vshale {F}
~Ascii
# ...
896.874    0.05390117 0.1230475  1          0.5600854 
897.0264   0.03676144 0.1135982  1          0.6223777 
897.1788   0.05132088 0.1289587  1          0.6288661 
897.3312   0.08981904 0.157834   1          0.5509208 
897.4836   0.106832   0.1736285  1          0.5410514 
897.636    0.1137655  0.1745914  1          0.49269   
897.7884   0.1207527  0.1739865  1          0.4311937 
897.9408   0.1131783  0.1724933  1          0.4804518 
898.0932   0.1121305  0.1739     1          0.5003331 
898.2456   0.1206415  0.1777989  1          0.4629751 
898.398    0.1355608  0.1818507  1          0.3749479 
898.5504   0.1339797  0.1778729  1          0.3555345 
898.7028   0.1002972  0.1598464  1          0.4823481 
898.8552   0.06986289 0.1351025  1          0.528441  
899.0076   0.06489994 0.1262395  1          0.4968507 
899.16     0.07038266 0.1292204  1          0.4765852 
899.3124   0.08819653 0.1443321  1          0.4546982 
899.4648   0.08757584 0.1474969  1          0.4853606 
899.6172   0.0720268  0.1346952  1          0.5076137 
899.7696   0.04280532 0.1108489  1          0.5511528 
899.922    0.008626439 0.08415131 1          0.6117513 
900.0744   0          0.06081734 1          0.7190972 
900.2268   0          0.04364826 1          0.8359913 
900.3792   0          0.05586912 1          0.8003673 
900.5316   0          0.07918896 1          0.6549001 
900.684    0.01888932 0.09339444 1          0.6034913 
900.8364   0          0.07946181 1          0.6949388 
900.9888   0          0.06099571 1          0.8357667 
901.1412   0          0.05842535 1          0.9274927 
901.2936   0          0.06471857 1          1         
901.446    0          0.07645436 1          1         
901.5984   0          0.08167234 1          0.9244149 
901.7508   0          0.07494628 1          0.7820669 
901.9032   0          0.08344944 1          0.6988025 
902.0556   0.008438682 0.08950248 1          0.6566166 
902.208    0.01501107 0.09410807 1          0.6406856 
902.3604   0          0.08345813 1          0.7201751 
902.5128   0          0.08247972 1          0.7122641 
902.6652   0.004399552 0.08471541 1          0.6505584 
902.8176   0.003009378 0.08377351 1          0.6541893 
902.97     0          0.07713149 1          0.762615  
903.1224   0          0.07504518 1          0.822873  
903.2748   0          0.08022667 1          0.8307152 
903.4272   0          0.08539697 1          0.7509189 
903.5796   0          0.08933338 1          0.8563666 
903.732    0          0.08785871 1          0.8195103 
903.8844   0          0.0825408  1          0.9154865 
904.0368   0          0.07925931 1          0.8766391 
904.1892   0          0.08113089 1          0.7643796 
904.3416   0.00546918 0.09018153 1          0.6861699 
904.494    0.0245438  0.09417283 1          0.563995  
904.6464   0.02725249 0.09517036 1          0.5501347 
904.7988   0.01066325 0.0925716  1          0.6634575 
904.9512   0          0.09333527 1          0.7971341 
905.1036   0          0.08941182 1          0.8506148 
905.256    0          0.08108704 1          0.8354712 
905.4084   0          0.0668686  1          0.8457045 
905.5608   0          0.05748036 1          0.9313837 
905.7132   0          0.05927777 1          0.97963   
905.8656   0          0.06433401 1          1         
906.018    0          0.06515935 1          1         
906.1704   0          0.05897842 1          0.9590258 
906.3228   0          0.05544394 1          0.9078476 
906.4752   0          0.05726181 1          0.9566052 
906.6276   0          0.05783652 1          0.9560804 
906.78     0          0.05511428 1          1         
906.9324   0          0.05179628 1          1         
907.0848   0          0.04736185 1          1         
907.2372   0          0.04621611 1          1         
907.3896   0          0.04899884 1          1         
907.542    0          0.05618024 1          1         
907.6944   0          0.05717351 1          1         
907.8468   0          0.05058403 1          0.9828038 
907.9992   0          0.03896245 1          0.9397078 
908.1516   0          0.03817905 1          0.914784  
908.304    0          0.03866237 1          0.9535059 
908.4564   0          0.03990258 1          0.9640358 
908.6088   0          0.03048093 1          1         
908.7612   0          0.01909939 1          1         
908.9136   0          0.01560185 1          1         
909.066    0          0.02616614 1          1         
909.2184   0          0.04405136 1          0.891143  
909.3708   0          0.05455988 1          0.7413799 
909.5232   0          0.05948219 1          0.6619495 
909.6756   0          0.06186859 1          0.6561756 
909.828    0          0.07054452 1          0.6668667 
909.9804   0          0.07560135 1          0.6178198 
910.1328   0.01125581 0.08294141 1          0.5806533 
910.2852   0.01068917 0.07975748 1          0.5594532 
910.4376   0.008119433 0.08228399 1          0.6007328 
910.59     0.004089676 0.08418147 1          0.6487435 
910.7424   0.03317219 0.1069624  1          0.5977003 
910.8948   0.06628076 0.1304241  1          0.5195608 
911.0472   0.1001304  0.1497291  1          0.4017489 
911.1996   0.1141598  0.1596389  1          0.3683805 
911.352    0.1256467  0.1631445  1          0.3037324 
911.5044   0.1155207  0.1615025  1          0.3724527 
911.6568   0.1036792  0.1537043  1          0.4052034 
911.8092   0.08921875 0.1499364  1          0.4918131 
911.9616   0.07800846 0.1397253  1          0.4999067 
912.114    0.03027662 0.1124938  1          0.6659592 
912.2664   0          0.08549763 1          0.6992601 
912.4188   0          0.06717473 1          0.7314499 
912.5712   0          0.06643092 1          0.7437239 
912.7236   0          0.05839754 1          0.9457746 
912.876    0          0.05340134 1          1         
913.0284   0          0.05046482 1          1         
913.1808   0          0.05685061 1          1         
913.3332   0          0.06655072 1          1         
913.4856   0          0.07430123 1          1         
913.638    0          0.07626171 1          1         
913.7904   0          0.06909826 1          1         
913.9428   0          0.06079261 1          1         
914.0952   0          0.05317661 1          0.9583537 
914.2476   0          0.06081675 1          0.8881816   
