~Version
 VERS              .         3.0                           : CWLS LOG ASCII STANDARD - VERSION 3.0
 WRAP              .         NO                            : ONE LINE PER DEPTH STEP
 DLM               .         SPACE                         : DELIMITING CHARACTER(SPACE TAB OR COMMA)
~Well Information
#_______________________________________________________________________________
#
#PARAMETER_NAME    .UNIT     VALUE                         : DESCRIPTION
#_______________________________________________________________________________
STRT               .m        563.118                       : First reference value
STOP               .m        914.2476                      : Last reference value
STEP               .m        0.1524                        : Step increment
NULL               .         -9999                         : Missing value
COMP               .         SomeCompany                   : Company
WELL               .         Well_E                        : Well name
FLD                .                                       : Field
LOC                .                                       : Location
SRVC               .                                       : Service Company
CTRY               .         NO                            : Country
DATE               .                                       : Service Date
LATI               .deg      70.000000                     : Latitude
LONG               .deg      35.000000                     : Longitude
GDAT               .                                       : Geodetic Datum
Completion_date    .         2020-02-17                    : Completed date
COUNTRY            .         Norway                        : 
EREF               .m        25.0                          : Kelly bushing elevation
DREF               .m        MSL                           : 
HZCS               .         ED50-UTM35                    : UTM zone
LGWN               .         Well_E                        : Wellbore name
OPER               .         SomeCompany                   : Drilling operator group
SPDA               .         2020-02-17                    : Entered date
SHWN               .         Well_E                        : Well name
STAT               .         BARENTS SEA                   : Main area
TD                 .m        930.0                         : Total depth
UWI                .         Well_E                        : NPDID wellbore
Water_depth        .m        400.0                         : Water depth
X                  .m        400000.00                     : EW UTM
Y                  .m        8000000.00                    : NS UTM
~Parameter Information Block
#_______________________________________________________________________________
#
#PARAMETER_NAME    .UNIT     VALUE                         : DESCRIPTION
#_______________________________________________________________________________
SET                .         CPI                           : 
TLFamily_DEPTH     .         Measured Depth                : 
TLFamily_PHIE      .         Effective Porosity            : 
TLFamily_PHIT      .         Total Porosity                : 
TLFamily_SW        .         Water Saturation              : 
TLFamily_VSH       .         Shale Volume Fraction         : 
~Curve Information
#_______________________________________________________________________________
#
#LOGNAME           .UNIT     LOG_ID                        : DESCRIPTION
#_______________________________________________________________________________
DEPTH              .m                                      :  {F}
PHIE_test          .v/v                                    : Porosity {F}
PHIT_test          .v/v                                    : Porosity {F}
SW_test            .v/v                                    :  {F}
VSH_test           .v/v                                    : Vshale {F}
~Ascii
# ...
607.6188   0          0.04503035 1          1         
607.7712   0          0.04678155 1          1         
607.9236   0          0.05003214 1          1         
608.076    0          0.04851553 1          1         
608.2284   0          0.0500835  1          1         
608.3808   0          0.05705562 1          1         
608.5332   0          0.06287362 1          1         
608.6856   0          0.06403216 1          1         
608.838    0          0.07208776 1          1         
608.9904   0          0.07664701 1          1         
609.1428   0          0.07896128 1          1         
609.2952   0          0.08100197 1          1         
609.4476   0          0.07650381 1          1         
609.6      0          0.07326367 1          0.9036306 
609.7524   0          0.07178842 1          1         
609.9048   0          0.06458597 1          1         
610.0572   0          0.06388719 1          1         
610.2096   0          0.06770322 1          1         
610.362    0          0.07253841 1          1         
610.5144   0          0.07562107 1          1         
610.6668   0          0.07597664 1          1         
610.8192   0          0.07750134 1          1         
610.9716   0          0.07716431 1          1         
611.124    0          0.07480073 1          1         
611.2764   0          0.07427209 1          1         
611.4288   0          0.07374331 1          1         
611.5812   0          0.07620387 1          1         
611.7336   0          0.08171487 1          1         
611.886    0          0.08642967 1          1         
612.0384   0          0.09396178 1          1         
612.1908   0          0.1027828  1          1         
612.3432   0          0.1131174  1          1         
612.4956   0          0.1224396  1          1         
612.648    0.008308154 0.131765   1          1         
612.8004   0.01675008 0.1402069  1          1         
612.9528   0.02543161 0.1488884  1          1         
613.1052   0.04220432 0.1623081  1          0.9728408 
613.2576   0.05077667 0.1742335  1          1         
613.41     0.05857296 0.1820298  1          1         
613.5624   0.06673468 0.1901915  1          1         
613.7148   0.06693027 0.1903871  1          1         
613.8672   0.06731983 0.1907766  1          1         
614.0196   0.06590197 0.1893588  1          1         
614.172    0.06131434 0.1847712  1          1         
614.3244   0.05637    0.1780864  1          0.985903  
614.4768   0.04840691 0.1718637  1          1         
614.6292   0.04427904 0.1677358  1          1         
614.7816   0.04459825 0.1680551  1          1         
614.934    0.04185806 0.1653149  1          1         
615.0864   0.04618463 0.1696414  1          1         
615.2388   0.04488407 0.1683409  1          1         
615.3912   0.04106244 0.1645193  1          1         
615.5436   0.04082284 0.1642797  1          1         
615.696    0.03861424 0.162071   1          1         
615.8484   0.03549198 0.1589488  1          1         
616.0008   0.04073704 0.1641939  1          1         
616.1532   0.04603406 0.1694909  1          1         
616.3056   0.05645929 0.1799161  1          1         
616.458    0.05955372 0.1830105  1          1         
616.6104   0.06125444 0.1847112  1          1         
616.7628   0.06174878 0.1852056  1          1         
616.9152   0.06087783 0.1843346  1          1         
617.0676   0.05407849 0.1775353  1          1         
617.22     0.05107352 0.1745303  1          1         
617.3724   0.04176122 0.165218   1          1         
617.5248   0.04021488 0.1636717  1          1         
617.6772   0.04615062 0.1696074  1          1         
617.8296   0.04730254 0.1707594  1          1         
617.982    0.04266795 0.1661248  1          1         
618.1344   0.03384013 0.1572969  1          1         
618.2868   0.02605812 0.1495149  1          1         
618.4392   0.009928521 0.1333853  1          1         
618.5916   0.0007037777 0.1241606  1          1         
618.744    0          0.1178494  1          1         
618.8964   0          0.117897   1          1         
619.0488   0.009119209 0.132576   1          1         
619.2012   0.03226862 0.1557254  1          1         
619.3536   0.05104822 0.174505   1          1         
619.506    0.07457409 0.1980309  1          1         
619.6584   0.09371307 0.2171699  1          1         
619.8108   0.1045741  0.2280309  1          1         
619.9632   0.1098383  0.2332951  1          1         
620.1156   0.1137563  0.2372131  1          1         
620.268    0.1187217  0.2421785  1          1         
620.4204   0.1225251  0.2379327  1          0.9348018 
620.5728   0.1123729  0.2358297  1          1         
620.7252   0.1009265  0.2243834  1          1         
620.8776   0.07950626 0.2029631  1          1         
621.03     0.05459888 0.1780557  1          1         
621.1824   0.02940996 0.1528668  1          1         
621.3348   0          0.1209384  1          1         
621.4872   0          0.1136809  1          1         
621.6396   0          0.1084983  1          1         
621.792    0          0.1013741  1          1         
621.9444   0          0.09993093 1          1         
622.0968   0          0.1039346  1          1         
622.2492   0          0.09786979 1          1         
622.4016   0          0.09606546 1          1         
622.554    0          0.09340871 1          1         
622.7064   0          0.09197599 1          1         
622.8588   0          0.09413103 1          1         
623.0112   0          0.09880757 1          1         
623.1636   0          0.09784212 1          1         
623.316    0          0.1136057  1          1         
623.4684   0          0.1167964  1          1         
623.6208   0          0.1221396  1          1         
623.7732   0.004949387 0.1284062  1          1         
623.9256   0.008940842 0.1323977  1          1         
624.078    0.008015569 0.1314724  1          1         
624.2304   0.0118778  0.1353346  1          1         
624.3828   0.006037142 0.129494   1          1         
624.5352   0.01009512 0.1335519  1          1         
624.6876   0.01302354 0.1364803  1          1         
624.84     0.01123835 0.1346952  1          1         
624.9924   0.01363033 0.1370871  1          1         
625.1448   0.0172908  0.1407476  1          1         
625.2972   0.01915443 0.1426112  1          1         
625.4496   0.01711051 0.1405673  1          1         
625.602    0.01841297 0.1418698  1          1         
625.7544   0.01363343 0.1370902  1          1         
625.9068   0.009783398 0.1332402  1          1         
626.0592   0.01174947 0.1352063  1          1         
626.2116   0.01157419 0.135031   1          1         
626.364    0.01135315 0.13481    1          1         
626.5164   0.01282471 0.1362815  1          1         
626.6688   0.01365932 0.1371161  1          1         
626.8212   0.02081115 0.144268   1          1         
626.9736   0.02071549 0.1441723  1          1         
627.126    0.01513281 0.1385896  1          1         
627.2784   0.01282544 0.1362823  1          1         
627.4308   0.01238717 0.135844   1          1         
627.5832   0.007734026 0.1311908  1          1         
627.7356   0.0007395404 0.1241964  1          1         
627.888    0.0007845717 0.1242414  1          1         
628.0404   0.004516121 0.1279729  1          1         
628.1928   0          0.1227878  1          1         
628.3452   0          0.1222501  1          1         
628.4976   0          0.1214161  1          1         
628.65     0          0.1193656  1          1         
628.8024   0          0.1180223  1          1         
628.9548   0          0.1177174  1          1         
629.1072   0          0.1157606  1          1         
629.2596   0          0.1196829  1          1         
629.412    0          0.1202211  1          1         
629.5644   0          0.1183853  1          1         
629.7168   0          0.1174403  1          1         
