~VERSION INFORMATION
VERS.                                                 2.0:   CWLS Log ASCII Standard-VERSION 2.0
WRAP.                                                  NO:   One line per depth step
~Well Information Block
STRT.M                                           342.1868:   Top Depth
STOP.M                                          2635.3496:   Bottom Depth
STEP.M                                             .15240:   Depth Increment
NULL.                                            -999.250:   Null Value
FLD .                                              A NAME:   Field Name
WELL.                                             WELL A:   NAME
WBN .                                             WELL A:   WELLBORE
NATI.                                                 NOR:   COUNTRY
CTRY.                                                 NOR:   COUNTRY
COMP.                               	     COMPANY NAME:   OPERATOR
PROV.                                           SOMEWHERE:   PROVINCE
COUN.                                                 RIG:   RIG NAME
SPUD.                                          1970/01/01:   SPUD DATE
LATI.                                       00 00 00.00 N:   SURF. LATITUDE
LONG.                                       00 00 00.00 E:   SURF. LONGITUDE
PBWE.                                              WELL A:   PB WELL ID
PBWB.                                              WELL A:   PB WELLBORE ID
PBWS.                                                 all:   PB WELL NAME SET
~PARAMETER INFORMATION (log)
LNAM.                                           COMPOSITE:   NAME
LTYP.                                         DEPTH MATCH:   LOG TYPE
LSRV.                                              HYBRID:   LOG SERVICE
LSOU.                                                  OD:   LOG SOURCE
LVSN.                                                   1:   LOG VERSION
BHIS.                                                   R:   BRIEF HISTORY
FHIS.                                             RAW-LIS:   FULL HISTORY
LCNM.                                                EXLO:   LOGGING CONTRACTOR
TOOL.                             DIL/BHC/GR (COMPOSITED):   TOOL STRING
QCRM.                                           HQLD data:   QC COMMENT
QCCD.                                                high:   QC LEVEL
QCCO.                                               SIMON:   QC COMPANY
QCST.                                               final:   QC STATUS
~Curve Information Block
#MNEM.UNIT                                        API CODE    No Description
#=========                                        ========    == ===========
DEPT.M                                       00 001 00 00:     1  DEPTH
HDRHO.G/CC                                               :     2  Nuclear Radiation
HNPHI.FRAC                                               :     3  Nuclear Radiation
HRHOB.G/CC                                               :     4  Nuclear Radiation
HRS.OHMM                                                 :     5  Electromagnetic Response
HDT.US/F                                                 :     6  Acoustic Response
HGR.GAPI                                                 :     7  Nuclear Radiation
HRD.OHMM                                                 :     8  Electromagnetic Response
HRM.OHMM                                                 :     9  Electromagnetic Response
HCALI.IN                                                 :    10  Formation Evaluation
~ASCII
# ...
  820.5704      .0159      .3584     2.2387  -999.2500   126.1250    64.0625     2.7969     2.9534    13.0881
  820.7228      .0319      .3913     2.2351  -999.2500   125.3750    62.9375     2.7955     2.9273    13.1778
  820.8752      .0389      .4038     2.2132  -999.2500   124.2500    70.1875     2.8625     2.8987    13.2085
  821.0276      .0373      .4071     2.2176  -999.2500   124.1875    71.2500     2.8856     2.9044    13.1900
  821.1800      .0318      .4226     2.2392  -999.2500   124.0000    70.8750     2.8491     2.8625    13.0239
  821.3324      .0207      .4123     2.2758  -999.2500   124.0000    72.0625     2.8316     2.8749    12.9698
  821.4848      .0061      .4174     2.2746  -999.2500   124.3750    69.8750     2.7805     2.8680    12.9984
  821.6372     -.0068      .4012     2.2662  -999.2500   124.1250    74.8125     2.7145     2.8875    13.0315
  821.7896     -.0119      .4070     2.2527  -999.2500   123.8750    69.6875     2.7180     2.9058    13.1145
  821.9420     -.0107      .4150     2.2601  -999.2500   123.0000    70.7500     2.7495     2.9302    13.1282
  822.0944     -.0111      .4093     2.2576  -999.2500   123.8750    66.1875     2.7374     2.9432    13.1530
  822.2468     -.0113      .3875     2.2623  -999.2500   124.5000    66.0625     2.7091     2.9230    13.1659
  822.3992     -.0054      .3908     2.2562  -999.2500   124.9375    68.3750     2.6681     2.8488    13.2492
  822.5516     -.0004      .4092     2.2539  -999.2500   125.3750    68.2500     2.6356     2.7512    13.3263
  822.7040     -.0023      .4407     2.2444  -999.2500   125.0000    72.6250     2.6257     2.7111    13.3289
  822.8564     -.0021      .4181     2.2561  -999.2500   122.0625    74.0000     2.5993     2.7298    13.3104
  823.0088     -.0022      .4195     2.2636  -999.2500   122.6875    80.4375     2.6053     2.7223    13.1634
  823.1612     -.0076      .3919     2.2554  -999.2500   123.1250    82.0000     2.6050     2.7298    13.0450
  823.3136     -.0071      .4009     2.2396  -999.2500   123.7500    82.2500     2.5938     2.7260    12.8722
  823.4660     -.0034      .3877     2.2355  -999.2500   123.5625    72.6875     2.6142     2.6902    12.7874
  823.6184     -.0020      .3797     2.2296  -999.2500   124.0625    69.1875     2.6717     2.6519    12.7080
  823.7708      .0028      .3617     2.2270  -999.2500   123.6875    69.1250     2.7036     2.6319    12.6761
  823.9232      .0089      .3784     2.2214  -999.2500   123.0000    73.8750     2.7349     2.6530    12.7502
  824.0756      .0084      .3948     2.2210  -999.2500   123.1250    77.0625     2.7357     2.7260    12.8823
  824.2280      .0078      .4119     2.2349  -999.2500   123.1875    71.5000     2.6651     2.7847    12.8944
  824.3804      .0073      .3722     2.2537  -999.2500   123.8125    70.2500     2.5888     2.8338    12.8779
  824.5328      .0057      .3786     2.2687  -999.2500   124.5625    66.3125     2.5412     2.8244    12.9855
  824.6852      .0032      .3660     2.2594  -999.2500   124.8125    67.8125     2.5021     2.7899    12.9960
  824.8376      .0050      .3891     2.2521  -999.2500   125.3750    66.6875     2.4908     2.7436    12.9690
  824.9900      .0063      .3800     2.2502  -999.2500   125.5000    64.8125     2.4864     2.7512    12.9960
  825.1424      .0115      .3884     2.2625  -999.2500   126.0625    70.3125     2.4808     2.7461    13.0000
  825.2948      .0129      .3874     2.2724  -999.2500   126.3750    73.5000     2.4341     2.7025    13.0081
  825.4472      .0050      .4014     2.2663  -999.2500   125.7500    77.6875     2.4151     2.6354    13.0781
  825.5996     -.0026      .3868     2.2650  -999.2500   124.7500    72.9375     2.3636     2.6377    13.1482
  825.7520     -.0055      .3619     2.2628  -999.2500   124.3750    68.9375     2.2946     2.7012    13.1563
  825.9044     -.0100      .3402     2.2579  -999.2500   124.3750    69.0000     2.2612     2.7782    13.1563
  826.0568     -.0124      .3303     2.2545  -999.2500   124.0000    73.3750     2.2727     2.7926    13.1563
  826.2092     -.0099      .3349     2.2567  -999.2500   124.9375    79.2500     2.3010     2.7795    13.1563
  826.3616     -.0109      .3220     2.2572  -999.2500   124.1250    74.0000     2.3358     2.7808    13.1450
  826.5140     -.0121      .3358     2.2519  -999.2500   125.1250    67.4375     2.3607     2.7386    13.0533
  826.6664     -.0084      .3248     2.2488  -999.2500   124.8750    65.5000     2.3977     2.6854    12.9984
  826.8188     -.0085      .3121     2.2459  -999.2500   124.7500    71.4375     2.4290     2.6203    12.9294
  826.9712     -.0081      .3182     2.2455  -999.2500   125.0625    72.4375     2.4502     2.6578    12.8009
  827.1236     -.0036      .3278     2.2521  -999.2500   124.7500    73.2500     2.5249     2.6331    12.7009
  827.2760     -.0018      .3462     2.2523  -999.2500   124.7500    68.0000     2.5442     2.6495    12.6444
  827.4284     -.0035      .3469     2.2459  -999.2500   124.9375    71.8125     2.5423     2.6733    12.5649
  827.5808     -.0026      .3573     2.2504  -999.2500   123.3750    71.7500     2.5507     2.6939    12.5056
  827.7332     -.0033      .3539     2.2557  -999.2500   122.3750    73.7500     2.5483     2.6878    12.4930
  827.8856     -.0001      .3442     2.2541  -999.2500   121.0625    70.0000     2.4712     2.6733    12.5067
  828.0380      .0091      .3341     2.2433  -999.2500   119.0625    65.6250     2.4431     2.6590    12.6216
  828.1904      .0149      .3536     2.2304  -999.2500   116.6875    61.9688     2.4357     2.6963    12.6761
  828.3428      .0255      .3497     2.2458  -999.2500   114.1875    63.9375     2.4448     2.6878    12.7843
  828.4952      .0394      .3441     2.2754  -999.2500   112.4375    64.6250     2.4383     2.7074    12.6980
  828.6476      .0326      .3564     2.2839  -999.2500   111.4375    71.1250     2.4545     2.7424    12.6665
  828.8000      .0099      .3797     2.2704  -999.2500   114.3750    71.0000     2.4621     2.8018    12.6641
  828.9524     -.0008      .3954     2.2670  -999.2500   116.1875    65.9375     2.4560     2.8097    12.6641
  829.1048     -.0072      .3586     2.2634  -999.2500   119.0000    62.7812     2.4692     2.7913    12.6641
  829.2572     -.0092      .3388     2.2603  -999.2500   121.4375    59.3437     2.4793     2.7487    12.6641
  829.4096     -.0106      .3235     2.2553  -999.2500   123.5000    63.8438     2.4881     2.6988    12.6641
  829.5620     -.0059      .3491     2.2566  -999.2500   122.0000    64.9375     2.5148     2.6542    12.6641
  829.7144     -.0037      .3777     2.2574  -999.2500   125.0000    68.4375     2.5442     2.6424    12.6641
  829.8668     -.0014      .4117     2.2646  -999.2500   124.3125    68.5625     2.5517     2.7160    12.6641
  830.0192     -.0055      .4066     2.2672  -999.2500   124.8750    71.6875     2.5467     2.7886    12.6641
  830.1716     -.0069      .3846     2.2709  -999.2500   125.7500    70.7500     2.5509     2.8097    12.6665
  830.3240     -.0098      .3731     2.2665  -999.2500   125.4375    75.4375     2.5587     2.7899    12.6907
  830.4764     -.0125      .3674     2.2610  -999.2500   125.4375    73.3125     2.5470     2.7602    12.7454
  830.6288     -.0132      .3661     2.2532  -999.2500   125.1250    76.1875     2.5288     2.7273    12.8160
  830.7812     -.0100      .3702     2.2550  -999.2500   125.3750    73.4375     2.5129     2.7210    12.7896
  830.9336     -.0081      .3594     2.2529  -999.2500   125.7500    68.0625     2.4748     2.7123    12.7179
  831.0860     -.0076      .3693     2.2562  -999.2500   125.7500    62.6250     2.4421     2.6963    12.8021
  831.2384     -.0070      .3630     2.2593  -999.2500   126.2500    65.4375     2.4028     2.6902    12.8265
  831.3908     -.0064      .3607     2.2668  -999.2500   126.4375    69.4375     2.3958     2.6769    12.8289
  831.5432     -.0077      .3680     2.2628  -999.2500   126.1250    71.9375     2.3976     2.6554    12.8520
