#----------------------------------------------------------------------------
~VERSION INFORMATION
VERS.            2.0                  :CWLS LOG ASCII STANDARD -VERSION 2.0
WRAP.            NO                   :ONE LINE PER DEPTH STEP
#
# Created by marten, at DESKTOP-7JFC02N, on 2020-03-17T21:40:57.014521, using version XXX
# NOTE: Some notes for well A
# Written to las on: 2020-03-17T21:52:46.162651
# Modified on: 2020-03-17T21:40:57.273821
#  Modification: sw: None, Test data generated from VCL
#--------------------------------------------------------------------
~WELL INFORMATION
#MNEM .UNIT      DATA                 :DESCRIPTION OF MNEMONIC
#----------      ------------         -------------------------------
STRT   .m        295.0                :START DEPTH
STOP   .m        2636.1688            :STOP DEPTH
STEP   .m        0.1524               :STEP DEPTH
WELL   .         Well_F               :WELL
NULL   .         -999.25              :NULL VALUE
COMP   .                              :COMPANY
WELL   .         Well_F               :WELL
LOC    .         Norway               :LOCATION - AREA
FLD    .                              :FIELD
CTRY   .         nor                  :COUNTRY
DATE   .                              :WELL DATE
XWELL  .m        0                    :X POS
YWELL  .m        0                    :Y POS
EDF    .         24.0                 :DERRICK FLOOR ELEVATION
#
# ----------------------------------------------------------------------------
~CURVE INFORMATION
# MNEM.UNIT                                         : CURVE DESCRIPTION
# ----------                                        -------------------------------
DEPTH               .m                                : 1        DEPTH
VP_DRY              .m/s                              : 2        Vp
VP_SG08             .m/s                              : 3        Vp
VP_SO08             .m/s                              : 4        Vp
VS_DRY              .m/s                              : 5        Vs
VS_SG08             .m/s                              : 6        Vs
VS_SO08             .m/s                              : 7        Vs
RHO_DRY             .g/cm3                            : 8        Rho
RHO_SG08            .g/cm3                            : 9        Rho
RHO_SO08            .g/cm3                            : 10       Rho
PHIE                .fract                            : 11       Por
VCL                 .fract                            : 12       Volume
SW                  .fract                            : 13       Fake water saturation
#
# ----------------------------------------------------------------------------
~A                  VP_DRY              VP_SG08             VP_SO08             VS_DRY              VS_SG08             VS_SO08             RHO_DRY             RHO_SG08            RHO_SO08            PHIE                VCL                 SW                  
# ...
1575.3124           2776.74             2776.74             2776.74             1292.6144           1292.6144           1292.6144           2.0382              2.0382              2.0382              -999.25             1.0                 1.0                 
1575.4648           2907.7172           2907.7172           2907.7172           1396.7518           1396.7518           1396.7518           2.1309              2.1309              2.1309              -999.25             1.0                 1.0                 
1575.6172           3019.5212           3019.5212           3019.5212           1486.3227           1486.3227           1486.3227           2.1284              2.1284              2.1284              -999.25             1.0                 1.0                 
1575.7696           3070.7881           3070.7881           3070.7881           1529.5141           1529.5141           1529.5141           2.0558              2.0558              2.0558              -999.25             1.0                 1.0                 
1575.922            3135.3768           3135.3768           3135.3768           1583.3668           1583.3668           1583.3668           2.0024              2.0024              2.0024              -999.25             1.0                 1.0                 
1576.0744           3211.7607           3211.7607           3211.7607           1646.4074           1646.4074           1646.4074           2.0035              2.0035              2.0035              -999.25             1.0                 1.0                 
1576.2268           3255.965            3255.965            3255.965            1685.2322           1685.2322           1685.2322           2.0671              2.0671              2.0671              -999.25             1.0                 1.0                 
1576.3792           3241.6719           3241.6719           3241.6719           1678.9311           1678.9311           1678.9311           2.1342              2.1342              2.1342              -999.25             1.0                 1.0                 
1576.5316           3186.096            3186.096            3186.096            1639.0299           1639.0299           1639.0299           2.1466              2.1466              2.1466              -999.25             1.0                 1.0                 
1576.684            3170.703            3170.703            3170.703            1629.3295           1629.3295           1629.3295           2.1072              2.1072              2.1072              -999.25             0.9947              1.0                 
1576.8364           3275.9911           3275.9911           3275.9911           1714.4266           1714.4266           1714.4266           2.0969              2.0969              2.0969              -999.25             0.9688              1.0                 
1576.9888           3431.5157           3431.5157           3431.5157           1839.6122           1839.6122           1839.6122           2.1352              2.1352              2.1352              -999.25             0.9655              1.0                 
1577.1412           3550.9055           3550.9055           3550.9055           1935.8342           1935.8342           1935.8342           2.1611              2.1611              2.1611              -999.25             0.9607              1.0                 
1577.2936           3562.1709           3562.1709           3562.1709           1946.4778           1946.4778           1946.4778           2.0986              2.0986              2.0986              -999.25             0.9205              1.0                 
1577.446            3455.0811           3455.0811           3455.0811           1864.1343           1864.1343           1864.1343           1.9635              1.9635              1.9635              -999.25             0.8786              1.0                 
1577.5984           3276.0166           3276.0166           3276.0166           1723.1672           1723.1672           1723.1672           1.8458              1.8458              1.8458              -999.25             0.9188              1.0                 
1577.7508           3108.8826           3108.8826           3108.8826           1587.2638           1587.2638           1587.2638           1.7688              1.7688              1.7688              -999.25             0.9914              1.0                 
1577.9032           3021.3277           3021.3277           3021.3277           1512.3126           1512.3126           1512.3126           1.7746              1.7746              1.7746              -999.25             0.9938              1.0                 
1578.0556           3095.2248           3095.2248           3095.2248           1568.6337           1568.6337           1568.6337           1.8532              1.8532              1.8532              -999.25             0.9634              1.0                 
1578.208            3321.5804           3321.5804           3321.5804           1751.3364           1751.3364           1751.3364           1.9286              1.9286              1.9286              -999.25             0.9033              1.0                 
1578.3604           3534.2327           3534.2327           3534.2327           1927.7675           1927.7675           1927.7675           1.9293              1.9293              1.9293              -999.25             0.8728              1.0                 
1578.5128           3611.2631           3611.2631           3611.2631           1992.7589           1992.7589           1992.7589           1.8688              1.8688              1.8688              -999.25             0.8975              1.0                 
1578.6652           3418.2225           3418.2225           3418.2225           1839.8155           1839.8155           1839.8155           1.8127              1.8127              1.8127              -999.25             0.956               1.0                 
1578.8176           3126.5491           3126.5491           3126.5491           1604.7873           1604.7873           1604.7873           1.8398              1.8398              1.8398              -999.25             0.996               1.0                 
1578.97             2947.3298           2947.3298           2947.3298           1458.4844           1458.4844           1458.4844           1.9313              1.9313              1.9313              -999.25             1.0                 1.0                 
1579.1224           2856.6743           2856.6743           2856.6743           1383.7391           1383.7391           1383.7391           2.0092              2.0092              2.0092              -999.25             1.0                 1.0                 
1579.2748           2858.3609           2858.3609           2858.3609           1384.3141           1384.3141           1384.3141           2.019               2.019               2.019               -999.25             1.0                 1.0                 
1579.4272           2933.9012           2933.9012           2933.9012           1444.8353           1444.8353           1444.8353           1.9705              1.9705              1.9705              -999.25             0.997               1.0                 
1579.5796           2963.1646           2963.1646           2963.1646           1469.6899           1469.6899           1469.6899           1.9218              1.9218              1.9218              -999.25             0.9932              1.0                 
1579.732            2939.812            2939.812            2939.812            1452.8647           1452.8647           1452.8647           1.8334              1.8334              1.8334              -999.25             0.9914              1.0                 
1579.8844           2985.5709           2985.5709           2985.5709           1489.5831           1489.5831           1489.5831           1.7486              1.7486              1.7486              -999.25             0.9948              1.0                 
