~Version
 VERS              .         3.0                           : CWLS LOG ASCII STANDARD - VERSION 3.0
 WRAP              .         NO                            : ONE LINE PER DEPTH STEP
 DLM               .         SPACE                         : DELIMITING CHARACTER(SPACE TAB OR COMMA)
~Well Information
#_______________________________________________________________________________
#
#PARAMETER_NAME    .UNIT     VALUE                         : DESCRIPTION
#_______________________________________________________________________________
STRT               .m        563.118                       : First reference value
STOP               .m        914.2476                      : Last reference value
STEP               .m        0.1524                        : Step increment
NULL               .         -9999                         : Missing value
COMP               .         SomeCompany                   : Company
WELL               .         Well_E                        : Well name
FLD                .                                       : Field
LOC                .                                       : Location
SRVC               .                                       : Service Company
CTRY               .         NO                            : Country
DATE               .                                       : Service Date
LATI               .deg      70.000000                     : Latitude
LONG               .deg      35.000000                     : Longitude
GDAT               .                                       : Geodetic Datum
Completion_date    .         2020-02-17                    : Completed date
COUNTRY            .         Norway                        : 
EREF               .m        25.0                          : Kelly bushing elevation
DREF               .m        MSL                           : 
HZCS               .         ED50-UTM35                    : UTM zone
LGWN               .         Well_E                        : Wellbore name
OPER               .         SomeCompany                   : Drilling operator group
SPDA               .         2020-02-17                    : Entered date
SHWN               .         Well_E                        : Well name
STAT               .         BARENTS SEA                   : Main area
TD                 .m        930.0                         : Total depth
UWI                .         Well_E                        : NPDID wellbore
Water_depth        .m        400.0                         : Water depth
X                  .m        400000.00                     : EW UTM
Y                  .m        8000000.00                    : NS UTM
~Parameter Information Block
#_______________________________________________________________________________
#
#PARAMETER_NAME    .UNIT     VALUE                         : DESCRIPTION
#_______________________________________________________________________________
SET                .         CPI                           : 
TLFamily_DEPTH     .         Measured Depth                : 
TLFamily_PHIE      .         Effective Porosity            : 
TLFamily_PHIT      .         Total Porosity                : 
TLFamily_SW        .         Water Saturation              : 
TLFamily_VSH       .         Shale Volume Fraction         : 
~Curve Information
#_______________________________________________________________________________
#
#LOGNAME           .UNIT     LOG_ID                        : DESCRIPTION
#_______________________________________________________________________________
DEPTH              .m                                      :  {F}
PHIE_test          .v/v                                    : Porosity {F}
PHIT_test          .v/v                                    : Porosity {F}
SW_test            .v/v                                    :  {F}
VSH_test           .v/v                                    : Vshale {F}
~Ascii
# ...
718.8708   0          0.0554279  1          0.7580209 
719.0232   0          0.06424085 1          0.8424926 
719.1756   0          0.07843029 1          0.9627557 
719.328    0          0.08629825 1          0.8666749 
719.4804   0          0.08609074 1          0.8816835 
719.6328   0          0.09359135 1          0.7920073 
719.7852   0.02035354 0.107202   1          0.7034721 
719.9376   0.04743481 0.1161198  1          0.5563487 
720.09     0.03842281 0.1174606  1          0.6402059 
720.2424   0.02605077 0.1087174  1          0.6695995 
720.3948   0.02113588 0.103784   1          0.66945   
720.5472   0.05393663 0.1196408  1          0.5322036 
720.6996   0.09062854 0.1451785  1          0.4418547 
720.852    0.1291377  0.1696729  1          0.3283354 
721.0044   0.1285562  0.1669594  1          0.3110659 
721.1568   0.1061733  0.1519698  1          0.3709516 
721.3092   0.07269949 0.1293506  1          0.4588739 
721.4616   0.03403344 0.106045   1          0.5832939 
721.614    0.01018506 0.09158775 1          0.6593617 
721.7664   0          0.08458708 1          0.7909945 
721.9188   0          0.08398647 1          0.8233055 
722.0712   0          0.08509143 1          0.7942252 
722.2236   0          0.0842137  1          0.820653  
722.376    0          0.08374452 1          0.744257  
722.5284   0          0.08673035 1          0.7620233 
722.6808   0.001498675 0.0885254  1          0.7049164 
722.8332   0.0008803824 0.09169696 1          0.7356141 
722.9856   0.001615228 0.08759086 1          0.6964025 
723.138    0          0.08640554 1          0.7074338 
723.2904   0.00259553 0.09040993 1          0.7112966 
723.4428   0.002644705 0.09667844 1          0.7616731 
723.5952   0.01797903 0.1056309  1          0.7099801 
723.7476   0.03213063 0.1104334  1          0.6342524 
723.9      0.039004   0.114423   1          0.6108934 
724.0524   0.0241035  0.1066136  1          0.6683314 
724.2048   0.00320437 0.09418152 1          0.7369148 
724.3572   0          0.08740071 1          0.7497396 
724.5096   0          0.08880311 1          0.7757506 
724.662    0          0.0882056  1          0.7598361 
724.8144   0          0.08358028 1          0.7845912 
724.9668   0          0.08110499 1          0.8169385 
725.1192   0          0.08427169 1          0.8749657 
725.2716   0          0.08564878 1          0.8664003 
725.424    0          0.09286859 1          0.7567769 
725.5764   0.01971051 0.09838342 1          0.6372504 
725.7288   0.03934078 0.106526   1          0.5442002 
725.8812   0.04390725 0.1106556  1          0.5406619 
726.0336   0.05039039 0.1141932  1          0.5168028 
726.186    0.0566341  0.120871   1          0.5203188 
726.3384   0.05104528 0.119016   1          0.5505631 
726.4908   0.04492252 0.1199013  1          0.6073279 
726.6432   0.0404037  0.1147772  1          0.6024253 
726.7956   0.05620401 0.1224728  1          0.5367773 
726.948    0.07732367 0.1311791  1          0.4362287 
727.1004   0.09403945 0.144592   1          0.4094759 
727.2528   0.1027743  0.1489352  1          0.3739031 
727.4052   0.09391169 0.1475038  1          0.4340963 
727.5576   0.08997541 0.1434426  1          0.4330843 
727.71     0.103708   0.1515759  1          0.3877299 
727.8624   0.1193751  0.165576   1          0.3742266 
728.0148   0.1302973  0.1746772  1          0.3594768 
728.1672   0.1255259  0.1689506  1          0.3517402 
728.3196   0.11679    0.16       1          0.3500009 
728.472    0.1140046  0.1554315  1          0.3355579 
728.6244   0.09572063 0.1466495  1          0.4125237 
728.7768   0.05774661 0.1202878  1          0.5065832 
728.9292   0.005524404 0.07632911 1          0.573518  
729.0816   0          0.05100067 1          0.5356972 
729.234    0.01106064 0.06103147 1          0.4047637 
729.3864   0.06538436 0.1010352  1          0.2887715 
729.5388   0.08238456 0.1284334  1          0.3729958 
729.6912   0.06986409 0.1408253  1          0.5747857 
729.8436   0.07035726 0.1541439  1          0.6786719 
729.996    0.1029482  0.174558   1          0.5800391 
730.1484   0.134252   0.1951877  1          0.4935787 
730.3008   0.1367773  0.2023402  1          0.5310601 
730.4532   0.1377781  0.2032433  1          0.5302683 
730.6056   0.1452342  0.2094316  1          0.5199989 
730.758    0.1557033  0.2258982  1          0.5685787 
730.9104   0.1901336  0.2472166  1          0.4623728 
731.0628   0.1972016  0.2555692  1          0.4727781 
731.2152   0.2075621  0.2547698  1          0.3823824 
731.3676   0.1772554  0.2404994  1          0.5122764 
731.52     0.1605685  0.2219914  1          0.4975253 
731.6724   0.1253167  0.2050692  1          0.6459958 
731.8248   0.1302248  0.2035007  1          0.5935342 
731.9772   0.1259093  0.2063741  1          0.6517648 
732.1296   0.121214   0.2021463  1          0.6555511 
732.282    0.09973498 0.1904828  1          0.7350568 
732.4344   0.0730089  0.1821494  1          0.8840381 
732.5868   0.06371918 0.1821865  1          0.9595853 
732.7392   0.07287681 0.1850402  1          0.9085231 
732.8916   0.07622448 0.1782155  1          0.8261273 
733.044    0.06233636 0.1578407  1          0.7735854 
733.1964   0.009812735 0.1250723  1          0.9336025 
733.3488   0          0.09980937 1          0.8569776 
733.5012   0          0.07544138 1          0.8999165 
733.6536   0          0.05180938 1          0.90106   
733.806    0          0.02354015 1          0.9867129 
733.9584   0          0.03153527 1          0.97221   
734.1108   0          0.05937667 1          0.9152901 
734.2632   0          0.09505807 1          0.8397721 
734.4156   0.00958108 0.1049037  1          0.7721133 
734.568    0.01543389 0.1060951  1          0.7343555 
734.7204   0.02367673 0.1092637  1          0.6932544 
734.8728   0.01548762 0.1057316  1          0.7309759 
735.0252   0          0.08234447 1          0.7690977 
735.1776   0          0.04902048 1          0.8456665 
735.33     0          0.03680682 1          0.8418825 
735.4824   0          0.0500364  1          0.9147277 
735.6348   0          0.05669505 1          0.9261594 
735.7872   0          0.03771605 1          0.9636391 
735.9396   0          0          1          1         
736.092    0          0          1          1         
736.2444   0          0.01852969 1          1         
736.3968   0          0.0660025  1          0.8671213 
736.5492   0.001499985 0.09041612 1          0.7202206 
736.7016   0          0.09057904 1          0.7970607 
736.854    0          0.08685559 1          0.8271775 
737.0064   0          0.08698525 1          0.8508948 
737.1588   0          0.09016048 1          0.8533899 
737.3112   0          0.09810247 1          0.8531767 
737.4636   0          0.1022383  1          0.8552175 
737.616    0.01105103 0.1031889  1          0.7463165 
737.7684   0.01302094 0.1022507  1          0.7227606 
737.9208   0.007021231 0.09861669 1          0.7419231 
738.0732   0.01414126 0.09564013 1          0.6601408 
738.2256   0.008464649 0.09182043 1          0.6751817 
738.378    0.007799505 0.09338031 1          0.6932044 
738.5304   0.002369739 0.09592344 1          0.7577848 
738.6828   0.004409229 0.09639513 1          0.7450857 
738.8352   0          0.09418093 1          0.7888019 
738.9876   0          0.09423273 1          0.7798243 
739.14     0.00159558 0.0961704  1          0.7660559 
739.2924   0.01787177 0.09910986 1          0.6580284 
739.4448   0.008032502 0.0977316  1          0.7265626 
739.5972   0          0.09017476 1          0.8682466 
739.7496   0          0.08690003 1          1         
739.902    0          0.0847185  1          1         
740.0544   0          0.08680187 1          1         
740.2068   0          0.08732727 1          1         
740.3592   0          0.08599389 1          1         
740.5116   0          0.08473396 1          1         
740.664    0          0.08118402 1          1         
740.8164   0          0.09016048 1          0.9256313 
740.9688   0          0.09960803 1          0.8644576 
