~Version
 VERS              .         3.0                           : CWLS LOG ASCII STANDARD - VERSION 3.0
 WRAP              .         NO                            : ONE LINE PER DEPTH STEP
 DLM               .         SPACE                         : DELIMITING CHARACTER(SPACE TAB OR COMMA)
~Well Information
#_______________________________________________________________________________
#
#PARAMETER_NAME    .UNIT     VALUE                         : DESCRIPTION
#_______________________________________________________________________________
STRT               .m        563.118                       : First reference value
STOP               .m        914.2476                      : Last reference value
STEP               .m        0.1524                        : Step increment
NULL               .         -9999                         : Missing value
COMP               .         SomeCompany                   : Company
WELL               .         Well_E                        : Well name
FLD                .                                       : Field
LOC                .                                       : Location
SRVC               .                                       : Service Company
CTRY               .         NO                            : Country
DATE               .                                       : Service Date
LATI               .deg      70.000000                     : Latitude
LONG               .deg      35.000000                     : Longitude
GDAT               .                                       : Geodetic Datum
Completion_date    .         2020-02-17                    : Completed date
COUNTRY            .         Norway                        : 
EREF               .m        25.0                          : Kelly bushing elevation
DREF               .m        MSL                           : 
HZCS               .         ED50-UTM35                    : UTM zone
LGWN               .         Well_E                        : Wellbore name
OPER               .         SomeCompany                   : Drilling operator group
SPDA               .         2020-02-17                    : Entered date
SHWN               .         Well_E                        : Well name
STAT               .         BARENTS SEA                   : Main area
TD                 .m        930.0                         : Total depth
UWI                .         Well_E                        : NPDID wellbore
Water_depth        .m        400.0                         : Water depth
X                  .m        400000.00                     : EW UTM
Y                  .m        8000000.00                    : NS UTM
~Parameter Information Block
#_______________________________________________________________________________
#
#PARAMETER_NAME    .UNIT     VALUE                         : DESCRIPTION
#_______________________________________________________________________________
SET                .         CPI                           : 
TLFamily_DEPTH     .         Measured Depth                : 
TLFamily_PHIE      .         Effective Porosity            : 
TLFamily_PHIT      .         Total Porosity                : 
TLFamily_SW        .         Water Saturation              : 
TLFamily_VSH       .         Shale Volume Fraction         : 
~Curve Information
#_______________________________________________________________________________
#
#LOGNAME           .UNIT     LOG_ID                        : DESCRIPTION
#_______________________________________________________________________________
DEPTH              .m                                      :  {F}
PHIE_test          .v/v                                    : Porosity {F}
PHIT_test          .v/v                                    : Porosity {F}
SW_test            .v/v                                    :  {F}
VSH_test           .v/v                                    : Vshale {F}
~Ascii
# ...
674.37     0.2303403  0.2335279  0.04283865 0.02693548
674.5224   0.2251309  0.227474   0.05193457 0.01979931
674.6748   0.2033077  0.2064006  0.05260562 0.02613582
674.8272   0.1658643  0.1686947  0.0363216  0.02391653
674.9796   0.1285639  0.1285639  0.03312223 0         
675.132    0.1031581  0.1031581  0.05598147 0         
675.2844   0.1119078  0.1119078  0.03664744 0         
675.4368   0.1520349  0.1542586  0.03497708 0.01879087
675.5892   0.1913391  0.1980077  0.03249301 0.05635044
675.7416   0.2199229  0.2279794  0.04031391 0.06807739
675.894    0.2172222  0.2268705  0.05926455 0.08152784
676.0464   0.2187092  0.2299083  0.07302527 0.09463199
676.1988   0.2289987  0.2374154  0.06383294 0.07112105
676.3512   0.2322179  0.2429989  0.05177861 0.09109948
676.5036   0.2352406  0.2412817  0.04348079 0.05104748
676.656    0.233553   0.2394864  0.0424693  0.05013686
676.8084   0.2358088  0.2374344  0.04363949 0.01373626
676.9608   0.2340226  0.234119   0.05314306 0.0008139901
677.1132   0.2284555  0.2320995  0.06339309 0.0307919 
677.2656   0.2207121  0.2325935  0.1012494  0.1003981 
677.418    0.2157873  0.2400497  0.1485552  0.2050172 
677.5704   0.2284339  0.2546024  0.1326052  0.2211236 
677.7228   0.245375   0.2657876  0.1154526  0.1724864 
677.8752   0.2565909  0.2676752  0.1194845  0.09366236
678.0276   0.2472233  0.2574355  0.1253953  0.0862926 
678.18     0.2344583  0.2478314  0.1593675  0.1130032 
678.3324   0.2186349  0.2331     0.2320326  0.1222303 
678.4848   0.2006701  0.2176846  0.3162396  0.1437728 
678.6372   0.1896829  0.2106799  0.3486858  0.1774245 
678.7896   0.1955809  0.2243236  0.2769063  0.2428764 
678.942    0.2630544  0.2630544  0.179685   0         
679.0944   0.2746648  0.2746648  0.1785598  0         
679.2468   0.2441686  0.2441686  0.1667981  0         
679.3992   0.1991271  0.2008347  0.1662004  0.0138313 
679.5516   0.1790025  0.1807186  0.2882088  0.0139005 
679.704    0.2003939  0.2003939  0.3377867  0         
679.8564   0.210868   0.210868   0.3570795  0         
680.0088   0.1939373  0.1988951  0.3984484  0.04015827
680.1612   0.1663117  0.1825154  0.4827424  0.13125   
680.3136   0.1626956  0.1814791  0.5106171  0.1521461 
680.466    0.1601439  0.1821427  0.5259431  0.1781898 
680.6184   0.159313   0.1824586  0.5260034  0.1874794 
680.7708   0.1601051  0.1821883  0.5140563  0.1788739 
680.9232   0.166125   0.1860667  0.4932301  0.161528  
681.0756   0.1684383  0.1873698  0.4704057  0.1533452 
681.228    0.1657305  0.1884278  0.4682864  0.1838482 
681.3804   0.1801372  0.1982334  0.4433125  0.1465793 
681.5328   0.1878668  0.2043858  0.4146982  0.133804  
681.6852   0.1980398  0.2058525  0.3937134  0.06328284
681.8376   0.1777596  0.1914049  0.4302593  0.1105269 
681.99     0.156958   0.1767623  0.4790352  0.1604154 
682.1424   0.1349731  0.1651284  0.530632   0.2442579 
682.2948   0.1299425  0.1651007  0.5283837  0.2847819 
682.4472   0.1537106  0.1798173  0.4745251  0.2114642 
682.5996   0.1747962  0.1937876  0.459906   0.1538303 
682.752    0.1879396  0.2054822  0.4355239  0.1420955 
682.9044   0.1795934  0.2030914  0.4719925  0.1903341 
683.0568   0.1576136  0.194189   0.5003872  0.2962607 
683.2092   0.1514012  0.1840593  0.4820924  0.26453   
683.3616   0.1490872  0.1812655  0.5536817  0.2606444 
683.514    0.1511364  0.1855975  0.5674781  0.2791353 
683.6664   0.1484289  0.1919506  0.5691916  0.3525257 
683.8188   0.1610851  0.2011482  0.540197   0.3245104 
683.9712   0.1680985  0.1996056  0.543483   0.2552075 
684.1236   0.1600135  0.1884463  0.5489023  0.2303058 
684.276    0.1295767  0.1627625  0.6395572  0.2688047 
684.4284   0.1053427  0.1457476  0.8179093  0.3272797 
684.5808   0.0904928  0.1368191  0.9704415  0.3752433 
684.7332   0.07950478 0.1359105  1          0.4568862 
684.8856   0.07900885 0.1400131  1          0.4941341 
685.038    0.1027749  0.1558105  0.8882312  0.4295885 
685.1904   0.1400661  0.179158   0.7112064  0.3166445 
685.3428   0.1843397  0.2069018  0.4946749  0.182753  
685.4952   0.2124463  0.2349463  0.4018672  0.1822504 
685.6476   0.2232508  0.2529173  0.3331962  0.2402988 
685.8      0.2383782  0.2635532  0.2910452  0.203917  
685.9524   0.2461156  0.2613846  0.2824519  0.1236794 
686.1048   0.2536209  0.2593074  0.2966231  0.04606062
686.2572   0.2405072  0.2494488  0.3296671  0.07242732
686.4096   0.2100889  0.2319087  0.387877   0.1767407 
686.562    0.1857819  0.2146989  0.4391162  0.2342272 
686.7144   0.169256   0.2018519  0.5647076  0.2640272 
686.8668   0.1562605  0.18485    0.5961001  0.2315754 
687.0192   0.1308409  0.1667457  0.704951   0.2908283 
687.1716   0.09596411 0.1490185  0.8857119  0.4297405 
687.324    0.08116406 0.1450272  1          0.5172915 
687.4764   0.09027335 0.1530075  0.955088   0.5081462 
687.6288   0.1183312  0.1697827  0.7959849  0.4167574 
687.7812   0.1427794  0.1821908  0.7257611  0.3192317 
687.9336   0.1361266  0.1746204  0.6965284  0.3117999 
688.086    0.1156021  0.1571309  0.8088276  0.3363837 
688.2384   0.08494922 0.1371024  1          0.422441  
688.3908   0.06721979 0.1265019  1          0.4801854 
688.5432   0.05402796 0.1260105  1          0.5830588 
688.6956   0.05262983 0.1328197  1          0.6495382 
688.848    0.05398023 0.1337939  1          0.6464905 
689.0004   0.04325115 0.1248315  1          0.6608011 
689.1528   0.03832233 0.1222507  1          0.6798199 
689.3052   0.0545521  0.1310815  1          0.619888  
689.4576   0.08560723 0.1521964  1          0.5393723 
689.61     0.1104054  0.1647204  0.901041   0.4399517 
689.7624   0.1304623  0.1770228  0.7302998  0.3771403 
689.9148   0.1445167  0.1863061  0.5955904  0.3384948 
690.0672   0.1782247  0.2083185  0.4926097  0.2437597 
690.2196   0.2069445  0.2310605  0.4106727  0.1953397 
690.372    0.2322928  0.2473297  0.3510766  0.1217983 
690.5244   0.2322066  0.2458587  0.3560189  0.1105819 
690.6768   0.2174898  0.2322179  0.4014317  0.1192973 
690.8292   0.1704887  0.2054859  0.5153472  0.283477  
690.9816   0.1358387  0.1846914  0.6233414  0.3957068 
691.134    0.1284622  0.1770217  0.6632262  0.3933316 
691.2864   0.1465995  0.1909902  0.6087766  0.3595643 
691.4388   0.1740128  0.2080186  0.5437644  0.275447  
691.5912   0.1899898  0.2177278  0.493962   0.2246777 
691.7436   0.2025279  0.2200433  0.4367395  0.1418747 
691.896    0.1983054  0.2160272  0.4302891  0.1435465 
692.0484   0.1916392  0.2134741  0.4589477  0.1768623 
692.2008   0.1832577  0.2030321  0.4952551  0.1601729 
692.3532   0.164347   0.1859994  0.5381336  0.1753846 
692.5056   0.1264459  0.1501648  0.5339928  0.1921232 
692.658    0.08925863 0.1169037  0.5482828  0.2239249 
692.8104   0.06266984 0.09413397 0.7565472  0.2548594 
692.9628   0.06547931 0.09374456 0.7460293  0.2289485 
693.1152   0.0741073  0.0997742  0.6713774  0.2079018 
693.2676   0.08380312 0.107808   0.6512359  0.1944396 
693.42     0.09817548 0.120955   0.6417976  0.1845143 
693.5724   0.1261547  0.1451606  0.6700494  0.1539471 
693.7248   0.148425   0.1751537  0.6753829  0.2165028 
693.8772   0.1637995  0.1982964  0.6245606  0.2794246 
694.0296   0.1524724  0.1988976  0.6340813  0.3760442 
694.182    0.1138205  0.1773106  0.8018088  0.5142691 
694.3344   0.06848503 0.146789   1          0.6342622 
694.4868   0.05023944 0.1325507  1          0.6667212 
694.6392   0.06355415 0.1381995  1          0.6046269 
694.7916   0.07679302 0.1458742  1          0.5595573 
694.944    0.09566576 0.1529619  0.9671486  0.4640983 
695.0964   0.09651661 0.1542612  0.9734051  0.4677314 
695.2488   0.1068471  0.1586464  0.8005654  0.4195743 
695.4012   0.1210767  0.1725852  0.6672355  0.4172186 
695.5536   0.1533894  0.2008735  0.5811704  0.3846213 
695.706    0.1961606  0.2317673  0.4705701  0.2884141 
695.8584   0.2241055  0.2433365  0.3935602  0.155771  
696.0108   0.2337807  0.2409821  0.3673743  0.05833209
696.1632   0.2270859  0.2320297  0.3785187  0.04004489
696.3156   0.2142783  0.2266026  0.4039178  0.09982663
696.468    0.197896   0.2161778  0.4515105  0.1480821 
