~VERSION INFORMATION
VERS.                                                 2.0:   CWLS Log ASCII Standard-VERSION 2.0
WRAP.                                                  NO:   One line per depth step
~Well Information Block
STRT.M                                           342.1868:   Top Depth
STOP.M                                          2635.3496:   Bottom Depth
STEP.M                                             .15240:   Depth Increment
NULL.                                            -999.250:   Null Value
FLD .                                              A NAME:   Field Name
WELL.                                             WELL A:   NAME
WBN .                                             WELL A:   WELLBORE
NATI.                                                 NOR:   COUNTRY
CTRY.                                                 NOR:   COUNTRY
COMP.                               	     COMPANY NAME:   OPERATOR
PROV.                                           SOMEWHERE:   PROVINCE
COUN.                                                 RIG:   RIG NAME
SPUD.                                          1970/01/01:   SPUD DATE
LATI.                                       00 00 00.00 N:   SURF. LATITUDE
LONG.                                       00 00 00.00 E:   SURF. LONGITUDE
PBWE.                                              WELL A:   PB WELL ID
PBWB.                                              WELL A:   PB WELLBORE ID
PBWS.                                                 all:   PB WELL NAME SET
~PARAMETER INFORMATION (log)
LNAM.                                           COMPOSITE:   NAME
LTYP.                                         DEPTH MATCH:   LOG TYPE
LSRV.                                              HYBRID:   LOG SERVICE
LSOU.                                                  OD:   LOG SOURCE
LVSN.                                                   1:   LOG VERSION
BHIS.                                                   R:   BRIEF HISTORY
FHIS.                                             RAW-LIS:   FULL HISTORY
LCNM.                                                EXLO:   LOGGING CONTRACTOR
TOOL.                             DIL/BHC/GR (COMPOSITED):   TOOL STRING
QCRM.                                           HQLD data:   QC COMMENT
QCCD.                                                high:   QC LEVEL
QCCO.                                               SIMON:   QC COMPANY
QCST.                                               final:   QC STATUS
~Curve Information Block
#MNEM.UNIT                                        API CODE    No Description
#=========                                        ========    == ===========
DEPT.M                                       00 001 00 00:     1  DEPTH
HDRHO.G/CC                                               :     2  Nuclear Radiation
HNPHI.FRAC                                               :     3  Nuclear Radiation
HRHOB.G/CC                                               :     4  Nuclear Radiation
HRS.OHMM                                                 :     5  Electromagnetic Response
HDT.US/F                                                 :     6  Acoustic Response
HGR.GAPI                                                 :     7  Nuclear Radiation
HRD.OHMM                                                 :     8  Electromagnetic Response
HRM.OHMM                                                 :     9  Electromagnetic Response
HCALI.IN                                                 :    10  Formation Evaluation
~ASCII
# ...
  520.1900      .0149      .4697     2.0421  -999.2500   145.0000    38.5938     2.3689     2.4186    13.3906
  520.3424      .0139      .4831     2.0523  -999.2500   143.7500    38.0313     2.3624     2.4903    13.3961
  520.4948      .0190      .4591     2.0547  -999.2500   143.3750    35.6250     2.3518     2.5652    13.4011
  520.6472      .0327      .4102     2.0194  -999.2500   142.2500    35.4375     2.3695     2.4955    13.0977
  520.7996      .0157      .3914     1.9945  -999.2500   135.3750    32.2500     2.4068     2.4494    12.8906
  520.9520      .0156      .3855     2.0144  -999.2500   137.7500    32.6250     2.4109     2.6056    12.8952
  521.1044      .0249      .3893     2.0909  -999.2500   137.3750    32.0313     2.4276     2.9250    12.9288
  521.2568      .0185      .3721     2.0925  -999.2500   139.3750    32.1562     2.4418     3.0506    12.8999
  521.4092      .0017      .3996     2.0751  -999.2500   142.0000    34.7500     2.4524     2.7510    12.7399
  521.5616      .0072      .4244     2.0847  -999.2500   140.8750    35.1563     2.4779     2.4334    12.8077
  521.7140      .0097      .4465     2.0967  -999.2500   140.8750    37.1562     2.4676     2.4364    13.0142
  521.8664      .0138      .4281     2.0812  -999.2500   141.6250    34.5938     2.4266     2.6113    13.0671
  522.0188      .0176      .4163     2.0640  -999.2500   145.0000    32.6563     2.3855     2.7650    13.0979
  522.1712      .0133      .4102     2.0501  -999.2500   145.7500    32.1250     2.3762     2.6507    13.0849
  522.3236      .0147      .4103     2.0661  -999.2500   145.5000    35.1563     2.3844     2.5240    13.1853
  522.4760      .0134      .4204     2.0820  -999.2500   145.6250    37.2188     2.3742     2.4676    13.0975
  522.6284      .0090      .4295     2.0794  -999.2500   143.3750    37.6875     2.3757     2.4324    12.9942
  522.7808      .0044      .4231     2.0772  -999.2500   144.3750    36.0000     2.3676     2.4384    12.8906
  522.9332      .0054      .4273     2.0730  -999.2500   144.1250    36.8125     2.3638     2.4585    12.8888
  523.0856      .0039      .4247     2.0707  -999.2500   143.5000    39.2188     2.3730     2.5165    12.8768
  523.2380      .0010      .4324     2.0581  -999.2500   143.5000    40.1875     2.3743     2.5499    12.8906
  523.3904     -.0012      .4319     2.0511  -999.2500   144.5000    40.1875     2.3806     2.6890    12.9062
  523.5428     -.0013      .4504     2.0527  -999.2500   144.3750    38.3438     2.3870     2.5719    13.0280
  523.6952      .0005      .4560     2.0547  -999.2500   145.0000    39.5313     2.3991     2.5586    13.0625
  523.8476      .0025      .4488     2.0533  -999.2500   145.8750    39.6875     2.3940     2.5954    13.0771
  524.0000      .0019      .4303     2.0471  -999.2500   146.5000    37.0938     2.3866     2.5752    13.2012
  524.1524      .0041      .4337     2.0433  -999.2500   146.5000    34.4063     2.3762     2.5187    13.3147
  524.3048      .0040      .4309     2.0464  -999.2500   146.7500    36.6563     2.3712     2.4955    13.3906
  524.4572      .0026      .4176     2.0429  -999.2500   146.8750    37.4687     2.3600     2.4707    13.3906
  524.6096      .0057      .4496     2.0506  -999.2500   147.2500    37.5313     2.3540     2.4717    13.3843
  524.7620      .0066      .4306     2.0459  -999.2500   146.6250    36.5625     2.3546     2.4444    13.3186
  524.9144      .0041      .4667     2.0445  -999.2500   146.0000    39.0312     2.3421     2.4196    13.1729
  525.0668      .0061      .4187     2.0484  -999.2500   146.2500    38.3750     2.3503     2.4364    13.0570
  525.2192      .0064      .4335     2.0523  -999.2500   145.2500    34.6875     2.3543     2.4544    13.0010
  525.3716      .0022      .4038     2.0489  -999.2500   145.0000    33.7813     2.3585     2.4414    12.8988
  525.5240      .0047      .4037     2.0567  -999.2500   145.3750    34.3750     2.3616     2.4554    12.9527
  525.6764      .0061      .3978     2.0646  -999.2500   145.5000    37.1250     2.3695     2.4965    12.8906
  525.8288      .0068      .4068     2.0708  -999.2500   145.2500    39.2500     2.3639     2.4986    12.9043
  525.9812      .0108      .4418     2.0623  -999.2500   146.2500    39.7500     2.3661     2.5113    13.0215
  526.1336      .0150      .4709     2.0555  -999.2500   146.7500    39.7188     2.3569     2.4069    13.1022
  526.2860      .0138      .4673     2.0445  -999.2500   146.7500    37.5938     2.3656     2.4147    12.9024
  526.4384      .0139      .4423     2.0551  -999.2500   146.2500    36.6875     2.3651     2.4186    12.6662
  526.5908      .0125      .4039     2.0608  -999.2500   146.1250    36.6250     2.3745     2.4434    12.4344
  526.7432      .0064      .3844     2.0695  -999.2500   144.6250    35.6250     2.3976     2.4635    12.3479
  526.8956      .0016      .3751     2.0748  -999.2500   144.1250    36.1875     2.4052     2.5060    12.3240
  527.0480     -.0010      .3755     2.0839  -999.2500   143.3750    37.6250     2.4108     2.4697    12.3580
  527.2004     -.0021      .3856     2.0850  -999.2500   143.0000    39.8750     2.4114     2.6685    12.4062
  527.3528     -.0059      .3802     2.0748  -999.2500   142.6250    38.5625     2.4026     2.7073    12.4035
  527.5052     -.0049      .3872     2.0682  -999.2500   144.0000    38.7500     2.4034     2.6367    12.3856
  527.6576     -.0063      .3967     2.0658  -999.2500   144.3750    35.0313     2.4174     2.5401    12.4044
  527.8100     -.0005      .4188     2.0743  -999.2500   144.1250    37.4375     2.4272     2.5208    12.4244
  527.9624      .0100      .4497     2.0876  -999.2500   144.7500    35.3750     2.4341     2.5176    12.6897
  528.1148      .0126      .4462     2.0939  -999.2500   137.6250    37.3750     2.4653     2.4986    12.7784
  528.2672      .0039      .4198     2.1424  -999.2500   136.6250    32.3125     2.4933     2.5532    12.8431
  528.4196      .0108      .3821     2.2449  -999.2500   136.3750    29.9375     2.4863     2.7446    12.5970
  528.5720      .0091      .3748     2.3003  -999.2500   136.1250    30.6875     2.4827     2.8106    12.5625
  528.7244     -.0070      .3930     2.2006  -999.2500   142.3750    35.0000     2.4836     2.9525    12.5625
  528.8768     -.0087      .4017     2.0941  -999.2500   145.0000    38.2500     2.5018     2.6614    12.5680
  529.0292      .0002      .4141     2.0479  -999.2500   145.1250    37.6250     2.5129     2.5965    12.6313
  529.1816      .0064      .3911     2.0560  -999.2500   145.2500    38.0937     2.4946     2.5988    12.8060
  529.3340      .0124      .3754     2.0670  -999.2500   144.7500    35.0313     2.4774     2.5897    12.8887
  529.4864      .0136      .3771     2.0808  -999.2500   144.0000    33.3750     2.4554     2.6262    13.0004
  529.6388      .0100      .3957     2.0746  -999.2500   144.8750    34.0312     2.4361     2.6067    13.0515
  529.7912      .0096      .4381     2.0731  -999.2500   145.0000    36.8437     2.4170     2.6332    12.9532
  529.9436      .0059      .4626     2.0530  -999.2500   144.8750    40.1562     2.4229     2.6101    12.8250
  530.0960      .0014      .4797     2.0404  -999.2500   143.7500    37.9688     2.4260     2.5488    12.7413
  530.2484      .0011      .4459     2.0390  -999.2500   143.1250    37.1562     2.4294     2.5240    12.7262
  530.4008     -.0001      .4060     2.0445  -999.2500   142.5000    34.5000     2.4332     2.5102    12.6786
  530.5532      .0013      .3901     2.0539  -999.2500   142.8750    34.7188     2.4363     2.4882    12.7982
  530.7056      .0026      .4030     2.0612  -999.2500   143.0000    32.5938     2.4261     2.4872    12.8645
  530.8580      .0049      .4241     2.0730  -999.2500   143.1250    32.6250     2.4185     2.4913    12.8492
  531.0104      .0026      .4083     2.0770  -999.2500   143.1250    35.3125     2.4219     2.5155    12.8906
  531.1628      .0027      .4153     2.0783  -999.2500   144.0000    38.2500     2.4195     2.5123    12.8906
