~Version
 VERS              .         3.0                           : CWLS LOG ASCII STANDARD - VERSION 3.0
 WRAP              .         NO                            : ONE LINE PER DEPTH STEP
 DLM               .         SPACE                         : DELIMITING CHARACTER(SPACE TAB OR COMMA)
~Well Information
#_______________________________________________________________________________
#
#PARAMETER_NAME    .UNIT     VALUE                         : DESCRIPTION
#_______________________________________________________________________________
STRT               .m        563.118                       : First reference value
STOP               .m        914.2476                      : Last reference value
STEP               .m        0.1524                        : Step increment
NULL               .         -9999                         : Missing value
COMP               .         SomeCompany                   : Company
WELL               .         Well_E                        : Well name
FLD                .                                       : Field
LOC                .                                       : Location
SRVC               .                                       : Service Company
CTRY               .         NO                            : Country
DATE               .                                       : Service Date
LATI               .deg      70.000000                     : Latitude
LONG               .deg      35.000000                     : Longitude
GDAT               .                                       : Geodetic Datum
Completion_date    .         2020-02-17                    : Completed date
COUNTRY            .         Norway                        : 
EREF               .m        25.0                          : Kelly bushing elevation
DREF               .m        MSL                           : 
HZCS               .         ED50-UTM35                    : UTM zone
LGWN               .         Well_E                        : Wellbore name
OPER               .         SomeCompany                   : Drilling operator group
SPDA               .         2020-02-17                    : Entered date
SHWN               .         Well_E                        : Well name
STAT               .         BARENTS SEA                   : Main area
TD                 .m        930.0                         : Total depth
UWI                .         Well_E                        : NPDID wellbore
Water_depth        .m        400.0                         : Water depth
X                  .m        400000.00                     : EW UTM
Y                  .m        8000000.00                    : NS UTM
~Parameter Information Block
#_______________________________________________________________________________
#
#PARAMETER_NAME    .UNIT     VALUE                         : DESCRIPTION
#_______________________________________________________________________________
SET                .         CPI                           : 
TLFamily_DEPTH     .         Measured Depth                : 
TLFamily_PHIE      .         Effective Porosity            : 
TLFamily_PHIT      .         Total Porosity                : 
TLFamily_SW        .         Water Saturation              : 
TLFamily_VSH       .         Shale Volume Fraction         : 
~Curve Information
#_______________________________________________________________________________
#
#LOGNAME           .UNIT     LOG_ID                        : DESCRIPTION
#_______________________________________________________________________________
DEPTH              .m                                      :  {F}
PHIE_test          .v/v                                    : Porosity {F}
PHIT_test          .v/v                                    : Porosity {F}
SW_test            .v/v                                    :  {F}
VSH_test           .v/v                                    : Vshale {F}
~Ascii
# ...
585.3684   0          0.04813715 1          0.8547927 
585.5208   0          0.04642672 1          0.8528605 
585.6732   0          0.04542227 1          0.9219901 
585.8256   0          0.04740129 1          0.9717522 
585.978    0          0.04740747 1          1         
586.1304   0          0.04530129 1          1         
586.2828   0          0.04263837 1          1         
586.4352   0          0.03809207 1          0.9960293 
586.5876   0          0.03201608 1          1         
586.74     0          0.03678283 1          1         
586.8924   0          0.03714326 1          1         
587.0448   0          0.04138225 1          1         
587.1972   0          0.04997238 1          1         
587.3496   0          0.06122044 1          1         
587.502    0          0.06594951 1          1         
587.6544   0          0.0684588  1          1         
587.8068   0          0.06857109 1          1         
587.9592   0          0.06936862 1          1         
588.1116   0          0.07126184 1          1         
588.264    0          0.07026548 1          1         
588.4164   0          0.06949636 1          1         
588.5688   0          0.0683964  1          1         
588.7212   0          0.06519026 1          1         
588.8736   0          0.0580143  1          1         
589.026    0          0.05451484 1          1         
589.1784   0          0.0487588  1          1         
589.3308   0          0.04730254 1          1         
589.4832   0          0.04509584 1          1         
589.6356   0          0.04512645 1          1         
589.788    0          0.04515692 1          1         
589.9404   0          0.05273097 1          1         
590.0928   0          0.05996742 1          1         
590.2452   0          0.07002662 1          1         
590.3976   0          0.08054824 1          1         
590.55     0          0.09047411 1          1         
590.7024   0          0.104889   1          1         
590.8548   0          0.1051014  1          1         
591.0072   0          0.1094075  1          1         
591.1596   0          0.110126   1          1         
591.312    0          0.1134212  1          1         
591.4644   0          0.1128526  1          1         
591.6168   0          0.1033606  1          1         
591.7692   0          0.09924393 1          1         
591.9216   0          0.1082186  1          1         
592.074    0          0.095626   1          1         
592.2264   0          0.1024439  1          1         
592.3788   0          0.09576361 1          1         
592.5312   0          0.0977884  1          1         
592.6836   0          0.1068674  1          1         
592.836    0          0.1061347  1          1         
592.9884   0          0.09949089 1          1         
593.1408   0          0.1000766  1          1         
593.2932   0          0.09458094 1          1         
593.4456   0          0.09714761 1          1         
593.598    0          0.09859638 1          1         
593.7504   0          0.1005192  1          1         
593.9028   0          0.1036611  1          1         
594.0552   0          0.1135273  1          1         
594.2076   0          0.1186396  1          1         
594.36     0          0.1196545  1          1         
594.5124   0.001809325 0.1252661  1          1         
594.6648   0          0.1231513  1          1         
594.8172   0.003261189 0.126718   1          1         
594.9696   0          0.1205822  1          1         
595.122    0          0.1119204  1          1         
595.2744   0          0.1070346  1          1         
595.4268   0          0.1049563  1          1         
595.5792   0          0.1064353  1          1         
595.7316   0          0.1080766  1          1         
595.884    0          0.1059729  1          1         
596.0364   0          0.1058081  1          1         
596.1888   0          0.1030377  1          1         
596.3412   0          0.1074575  1          1         
596.4936   0          0.1081964  1          1         
596.646    0          0.1122174  1          1         
596.7984   0          0.1155544  1          1         
596.9508   0          0.1159285  1          1         
597.1032   0.0011007  0.1245575  1          1         
597.2556   0.006625976 0.1300828  1          1         
597.408    0.00262114 0.126078   1          1         
597.5604   0          0.1185107  1          1         
597.7128   0          0.111497   1          1         
597.8652   0          0.1135383  1          1         
598.0176   0          0.1095779  1          1         
598.17     0          0.1002378  1          1         
598.3224   0          0.09921862 1          1         
598.4748   0          0.09944453 1          1         
598.6272   0          0.09783594 1          1         
598.7796   0          0.1028939  1          1         
598.932    0          0.100139   1          1         
599.0844   0          0.09827289 1          1         
599.2368   0          0.1104624  1          1         
599.3892   0          0.1102118  1          1         
599.5416   0          0.110897   1          1         
599.694    0          0.1188069  1          1         
599.8464   0          0.116923   1          1         
599.9988   0          0.1115896  1          1         
600.1512   0          0.1063865  1          1         
600.3036   0          0.1037531  1          1         
600.456    0          0.1015358  1          1         
600.6084   0          0.105255   1          1         
600.7608   0          0.1055712  1          1         
600.9132   0          0.1058871  1          1         
601.0656   0          0.1012896  1          1         
601.218    0          0.1097965  1          1         
601.3704   0          0.1123094  1          1         
601.5228   0          0.1033025  1          1         
601.6752   0          0.1002212  1          1         
601.8276   0          0.0935291  1          1         
601.98     0          0.08584025 1          1         
602.1324   0          0.08200377 1          1         
602.2848   0          0.08383282 1          1         
602.4372   0          0.0800458  1          1         
602.5896   0          0.082723   1          1         
602.742    0          0.07758523 1          1         
602.8944   0          0.07906798 1          1         
603.0468   0          0.07756065 1          1         
603.1992   0          0.07156736 1          1         
603.3516   0          0.07170688 1          1         
603.504    0          0.06712969 1          1         
603.6564   0          0.06706243 1          1         
603.8088   0          0.06712174 1          1         
603.9612   0          0.06259459 1          1         
604.1136   0          0.05809274 1          1         
604.266    0          0.06823774 1          1         
604.4184   0          0.06356931 1          1         
604.5708   0          0.0684198  1          1         
604.7232   0          0.06602973 1          1         
604.8756   0          0.06378653 1          1         
605.028    0          0.06836431 1          1         
605.1804   0          0.06579028 1          1         
605.3328   0          0.06385997 1          1         
605.4852   0          0.06937907 1          1         
605.6376   0          0.07477733 1          1         
605.79     0          0.07704702 1          1         
605.9424   0          0.07486122 1          1         
606.0948   0          0.0703791  1          1         
606.2472   0          0.07666732 1          1         
606.3996   0          0.07480633 1          1         
606.552    0          0.06926059 1          1         
606.7044   0          0.06353958 1          1         
606.8568   0          0.05830438 1          1         
607.0092   0          0.06071858 1          1         
607.1616   0          0.05831056 1          1         
607.314    0          0.05181615 1          1         
607.4664   0          0.04717362 1          1         
