~Version
 VERS              .         3.0                           : CWLS LOG ASCII STANDARD - VERSION 3.0
 WRAP              .         NO                            : ONE LINE PER DEPTH STEP
 DLM               .         SPACE                         : DELIMITING CHARACTER(SPACE TAB OR COMMA)
~Well Information
#_______________________________________________________________________________
#
#PARAMETER_NAME    .UNIT     VALUE                         : DESCRIPTION
#_______________________________________________________________________________
STRT               .m        563.118                       : First reference value
STOP               .m        914.2476                      : Last reference value
STEP               .m        0.1524                        : Step increment
NULL               .         -9999                         : Missing value
COMP               .         SomeCompany                   : Company
WELL               .         Well_E                        : Well name
FLD                .                                       : Field
LOC                .                                       : Location
SRVC               .                                       : Service Company
CTRY               .         NO                            : Country
DATE               .                                       : Service Date
LATI               .deg      70.000000                     : Latitude
LONG               .deg      35.000000                     : Longitude
GDAT               .                                       : Geodetic Datum
Completion_date    .         2020-02-17                    : Completed date
COUNTRY            .         Norway                        : 
EREF               .m        25.0                          : Kelly bushing elevation
DREF               .m        MSL                           : 
HZCS               .         ED50-UTM35                    : UTM zone
LGWN               .         Well_E                        : Wellbore name
OPER               .         SomeCompany                   : Drilling operator group
SPDA               .         2020-02-17                    : Entered date
SHWN               .         Well_E                        : Well name
STAT               .         BARENTS SEA                   : Main area
TD                 .m        930.0                         : Total depth
UWI                .         Well_E                        : NPDID wellbore
Water_depth        .m        400.0                         : Water depth
X                  .m        400000.00                     : EW UTM
Y                  .m        8000000.00                    : NS UTM
~Parameter Information Block
#_______________________________________________________________________________
#
#PARAMETER_NAME    .UNIT     VALUE                         : DESCRIPTION
#_______________________________________________________________________________
SET                .         CPI                           : 
TLFamily_DEPTH     .         Measured Depth                : 
TLFamily_PHIE      .         Effective Porosity            : 
TLFamily_PHIT      .         Total Porosity                : 
TLFamily_SW        .         Water Saturation              : 
TLFamily_VSH       .         Shale Volume Fraction         : 
~Curve Information
#_______________________________________________________________________________
#
#LOGNAME           .UNIT     LOG_ID                        : DESCRIPTION
#_______________________________________________________________________________
DEPTH              .m                                      :  {F}
PHIE_test          .v/v                                    : Porosity {F}
PHIT_test          .v/v                                    : Porosity {F}
SW_test            .v/v                                    :  {F}
VSH_test           .v/v                                    : Vshale {F}
~Ascii
# ...
741.1212   0.0003382523 0.1063927  1          0.8590406 
741.2736   0          0.1022537  1          0.9631609 
741.426    0          0.0950254  1          0.9916189 
741.5784   0          0.08934147 1          0.9298184 
741.7308   0          0.09061112 1          0.8081818 
741.8832   0          0.09171049 1          0.7993281 
742.0356   0          0.09367539 1          0.812633  
742.188    0          0.09201985 1          0.8260435 
742.3404   0          0.08666853 1          0.8978035 
742.4928   0          0.09189019 1          1         
742.6452   0          0.101747   1          0.9023843 
742.7976   0.02648402 0.1192099  1          0.7510793 
742.95     0.02432485 0.1147018  1          0.7320535 
743.1024   0          0.09408276 1          0.8897239 
743.2548   0          0.0734544  1          1         
743.4072   0          0.06859641 1          1         
743.5596   0          0.07317595 1          1         
743.712    0          0.07444943 1          1         
743.8644   0          0.06613216 1          1         
744.0168   0          0.06386115 1          1         
744.1692   0          0.06321242 1          1         
744.3216   0          0.07358524 1          1         
744.474    0          0.08195256 1          1         
744.6264   0          0.07734578 1          1         
744.7788   0          0.05736424 1          0.9149239 
744.9312   0          0.02272408 1          1         
745.0836   0          0.01395072 1          1         
745.236    0          0.02720253 1          1         
745.3884   0          0.05597037 1          0.8433011 
745.5408   0          0.067842   1          0.8338453 
745.6932   0          0.06978276 1          0.7385842 
745.8456   0          0.06808954 1          0.7194852 
745.998    0          0.06756679 1          0.6942387 
746.1504   0          0.06329513 1          0.7383969 
746.3028   0          0.06125503 1          0.7755752 
746.4552   0          0.06700062 1          0.7509265 
746.6076   0          0.07689323 1          0.6747414 
746.76     0          0.07757728 1          0.7082922 
746.9124   0          0.06323832 1          0.7702847 
747.0648   0          0.03995248 1          0.858153  
747.2172   0          0.01272964 1          0.8282734 
747.3696   0          0          1          0.8062754 
747.522    0          0          1          0.7171645 
747.6744   0          0.006038318 1          0.639513  
747.8268   0          0.03176603 1          0.5326151 
747.9792   0.007765763 0.0674389  1          0.4833523 
748.1316   0.02911503 0.09577097 1          0.539913  
748.284    0.02491353 0.1128272  1          0.7121003 
748.4364   0.01272178 0.1061217  1          0.7565394 
748.5888   0          0.09183589 1          0.7493585 
748.7412   0          0.07619018 1          0.7536514 
748.8936   0          0.07230867 1          0.7126505 
749.046    0          0.07630189 1          0.7094199 
749.1984   0          0.07325867 1          0.7810461 
749.3508   0          0.06783214 1          0.8915439 
749.5032   0          0.06115186 1          0.9423032 
749.6556   0          0.06404202 1          0.9778581 
749.808    0          0.06765377 1          0.956951  
749.9604   0          0.07163712 1          0.9175363 
750.1128   0          0.07529759 1          0.9198987 
750.2652   0          0.07783468 1          1         
750.4176   0          0.07739199 1          1         
750.57     0          0.07435436 1          1         
750.7224   0          0.07362469 1          1         
750.8748   0          0.0695099  1          1         
751.0272   0          0.06977481 1          1         
751.1796   0          0.06781802 1          1         
751.332    0          0.0708006  1          1         
751.4844   0          0.07764512 1          0.9901533 
751.6368   0          0.08573516 1          0.9433085 
751.7892   0          0.08896603 1          0.9906918 
751.9416   0          0.08792715 1          0.9801401 
752.094    0          0.07807604 1          1         
752.2464   0          0.07301363 1          1         
752.3988   0          0.06872591 1          1         
752.5512   0          0.07461309 1          1         
752.7036   0          0.07265747 1          1         
752.856    0          0.07185935 1          1         
753.0084   0          0.07349517 1          1         
753.1608   0          0.07932229 1          1         
753.3132   0          0.07619136 1          1         
753.4656   0          0.06755502 1          1         
753.618    0          0.06351986 1          1         
753.7704   0          0.06522352 1          1         
753.9228   0          0.06933462 1          1         
754.0752   0          0.07099207 1          1         
754.2276   0          0.07223714 1          1         
754.38     0          0.07275681 1          1         
754.5324   0          0.06755811 1          1         
754.6848   0          0.06108151 1          1         
754.8372   0          0.05574579 1          1         
754.9896   0          0.05380062 1          1         
755.142    0          0.05818826 1          1         
755.2944   0          0.0604235  1          0.9513684 
755.4468   0          0.06182355 1          1         
755.5992   0          0.06227537 1          1         
755.7516   0          0.05534077 1          1         
755.904    0          0.05463155 1          1         
756.0564   0          0.05512664 1          1         
756.2088   0          0.06674263 1          1         
756.3612   0          0.0710611  1          1         
756.5136   0          0.06675867 1          1         
756.666    0          0.0622137  1          1         
756.8184   0          0.0682142  1          1         
756.9708   0          0.07733518 1          1         
757.1232   0          0.07997721 1          1         
757.2756   0          0.0782185  1          1         
757.428    0          0.07295623 1          0.9817202 
757.5804   0          0.07129937 1          1         
757.7328   0          0.06585503 1          1         
757.8852   0          0.06346923 1          1         
758.0376   0          0.06104384 1          1         
758.19     0          0.06041173 1          1         
758.3424   0          0.05673714 1          1         
758.4948   0          0.05653154 1          1         
758.6472   0          0.05977477 1          1         
758.7996   0          0.07044827 1          1         
758.952    0          0.07369076 1          1         
759.1044   0          0.06702593 1          1         
759.2568   0          0.06003703 1          1         
759.4092   0          0.05969324 1          1         
759.5616   0          0.06193466 1          1         
759.714    0          0.05696923 1          1         
759.8664   0          0.05557419 1          1         
760.0188   0          0.06072653 1          1         
760.1712   0          0.07023148 1          1         
760.3236   0          0.07050066 1          1         
760.476    0          0.06439332 1          1         
760.6284   0          0.05933899 1          1         
760.7808   0          0.06140617 1          1         
760.9332   0          0.06645005 1          1         
761.0856   0          0.0712037  1          1         
761.238    0          0.07088346 1          1         
761.3904   0          0.0696871  1          1         
761.5428   0          0.06863702 1          1         
761.6952   0          0.06062719 1          1         
761.8476   0          0.05556919 1          1         
762        0          0.04971851 1          1         
762.1524   0          0.05722163 1          1         
762.3048   0          0.06252659 1          1         
762.4572   0          0.06733338 1          1         
762.6096   0          0.06801552 1          1         
762.762    0          0.07351799 1          1         
762.9144   0          0.08244882 1          1         
763.0668   0          0.09066116 1          0.9114851 
763.2192   0          0.09642603 1          0.8700751 
