#----------------------------------------------------------------------------
~VERSION INFORMATION
VERS.            2.0                  :CWLS LOG ASCII STANDARD -VERSION 2.0
WRAP.            NO                   :ONE LINE PER DEPTH STEP
#
# Created by marten, at DESKTOP-7JFC02N, on 2020-03-17T21:40:57.014521, using version XXX
# NOTE: Some notes for well A
# Written to las on: 2020-03-17T21:52:46.162651
# Modified on: 2020-03-17T21:40:57.273821
#  Modification: sw: None, Test data generated from VCL
#--------------------------------------------------------------------
~WELL INFORMATION
#MNEM .UNIT      DATA                 :DESCRIPTION OF MNEMONIC
#----------      ------------         -------------------------------
STRT   .m        295.0                :START DEPTH
STOP   .m        2636.1688            :STOP DEPTH
STEP   .m        0.1524               :STEP DEPTH
WELL   .         Well_F               :WELL
NULL   .         -999.25              :NULL VALUE
COMP   .                              :COMPANY
WELL   .         Well_F               :WELL
LOC    .         Norway               :LOCATION - AREA
FLD    .                              :FIELD
CTRY   .         nor                  :COUNTRY
DATE   .                              :WELL DATE
XWELL  .m        0                    :X POS
YWELL  .m        0                    :Y POS
EDF    .         24.0                 :DERRICK FLOOR ELEVATION
#
# ----------------------------------------------------------------------------
~CURVE INFORMATION
# MNEM.UNIT                                         : CURVE DESCRIPTION
# ----------                                        -------------------------------
DEPTH               .m                                : 1        DEPTH
VP_DRY              .m/s                              : 2        Vp
VP_SG08             .m/s                              : 3        Vp
VP_SO08             .m/s                              : 4        Vp
VS_DRY              .m/s                              : 5        Vs
VS_SG08             .m/s                              : 6        Vs
VS_SO08             .m/s                              : 7        Vs
RHO_DRY             .g/cm3                            : 8        Rho
RHO_SG08            .g/cm3                            : 9        Rho
RHO_SO08            .g/cm3                            : 10       Rho
PHIE                .fract                            : 11       Por
VCL                 .fract                            : 12       Volume
SW                  .fract                            : 13       Fake water saturation
#
# ----------------------------------------------------------------------------
~A                  VP_DRY              VP_SG08             VP_SO08             VS_DRY              VS_SG08             VS_SO08             RHO_DRY             RHO_SG08            RHO_SO08            PHIE                VCL                 SW                  
# ...
672.952             2377.4658           2377.4658           2377.4658           1055.9829           1055.9829           1055.9829           2.1998              2.1998              2.1998              -999.25             0.8732              1.0                 
673.1044            2358.5107           2358.5107           2358.5107           1040.74             1040.74             1040.74             2.1888              2.1888              2.1888              -999.25             0.868               1.0                 
673.2568            2355.0811           2355.0811           2355.0811           1037.982            1037.982            1037.982            2.1858              2.1858              2.1858              -999.25             0.8946              1.0                 
673.4092            2333.9524           2333.9524           2333.9524           1020.9911           1020.9911           1020.9911           2.1856              2.1856              2.1856              -999.25             0.9212              1.0                 
673.5616            2313.4719           2313.4719           2313.4719           1004.5215           1004.5215           1004.5215           2.1801              2.1801              2.1801              -999.25             0.944               1.0                 
673.714             2279.9314           2279.9314           2279.9314           977.5496            977.5496            977.5496            2.1706              2.1706              2.1706              -999.25             0.9918              1.0                 
673.8664            2242.4642           2242.4642           2242.4642           947.42              947.42              947.42              2.1654              2.1654              2.1654              -999.25             0.9946              1.0                 
674.0188            2252.8266           2252.8266           2252.8266           955.753             955.753             955.753             2.1645              2.1645              2.1645              -999.25             0.9538              1.0                 
674.1712            2283.677            2283.677            2283.677            980.5617            980.5617            980.5617            2.1663              2.1663              2.1663              -999.25             0.9016              1.0                 
674.3236            2324.7767           2324.7767           2324.7767           1013.6124           1013.6124           1013.6124           2.1747              2.1747              2.1747              -999.25             0.8516              1.0                 
674.476             2381.8256           2381.8256           2381.8256           1059.4889           1059.4889           1059.4889           2.1908              2.1908              2.1908              -999.25             0.8191              1.0                 
674.6284            2436.8784           2436.8784           2436.8784           1103.7602           1103.7602           1103.7602           2.209               2.209               2.209               -999.25             0.7835              0.9835              
674.7808            2475.533            2475.533            2475.533            1134.8446           1134.8446           1134.8446           2.2186              2.2186              2.2186              -999.25             0.7796              0.9796              
674.9332            2473.6476           2473.6476           2473.6476           1133.3284           1133.3284           1133.3284           2.2187              2.2187              2.2187              -999.25             0.7815              0.9815              
675.0856            2460.227            2460.227            2460.227            1122.5361           1122.5361           1122.5361           2.2142              2.2142              2.2142              -999.25             0.7965              0.9964999999999999  
675.238             2449.7394           2449.7394           2449.7394           1114.1024           1114.1024           1114.1024           2.2147              2.2147              2.2147              -999.25             0.8056              1.0                 
675.3904            2458.6831           2458.6831           2458.6831           1121.2946           1121.2946           1121.2946           2.2201              2.2201              2.2201              -999.25             0.8226              1.0                 
675.5428            2450.9571           2450.9571           2450.9571           1115.0817           1115.0817           1115.0817           2.2207              2.2207              2.2207              -999.25             0.8106              1.0                 
675.6952            2444.2057           2444.2057           2444.2057           1109.6524           1109.6524           1109.6524           2.2086              2.2086              2.2086              -999.25             0.7474              0.9474              
675.8476            2443.898            2443.898            2443.898            1109.405            1109.405            1109.405            2.1878              2.1878              2.1878              -999.25             0.6931              0.8931              
676.0               2430.8016           2430.8016           2430.8016           1098.8734           1098.8734           1098.8734           2.171               2.171               2.171               -999.25             0.7007              0.9007000000000001  
676.1524            2410.232            2410.232            2410.232            1082.3321           1082.3321           1082.3321           2.1688              2.1688              2.1688              -999.25             0.7573              0.9573              
676.3048            2399.1164           2399.1164           2399.1164           1073.3935           1073.3935           1073.3935           2.1835              2.1835              2.1835              -999.25             0.8423              1.0                 
676.4572            2382.5583           2382.5583           2382.5583           1060.0781           1060.0781           1060.0781           2.2008              2.2008              2.2008              -999.25             0.9282              1.0                 
676.6096            2365.6552           2365.6552           2365.6552           1046.4853           1046.4853           1046.4853           2.2145              2.2145              2.2145              -999.25             0.9637              1.0                 
676.762             2367.0949           2367.0949           2367.0949           1047.643            1047.643            1047.643            2.222               2.222               2.222               -999.25             0.9714              1.0                 
676.9144            2369.9612           2369.9612           2369.9612           1049.948            1049.948            1049.948            2.2255              2.2255              2.2255              -999.25             0.9947              1.0                 
677.0668            2351.6757           2351.6757           2351.6757           1035.2435           1035.2435           1035.2435           2.227               2.227               2.227               -999.25             1.0                 1.0                 
677.2192            2336.7549           2336.7549           2336.7549           1023.2448           1023.2448           1023.2448           2.2301              2.2301              2.2301              -999.25             1.0                 1.0                 
677.3716            2341.5192           2341.5192           2341.5192           1027.0761           1027.0761           1027.0761           2.2324              2.2324              2.2324              -999.25             1.0                 1.0                 
677.524             2335.9084           2335.9084           2335.9084           1022.5641           1022.5641           1022.5641           2.228               2.228               2.228               -999.25             1.0                 1.0                 
