~VERSION INFORMATION
VERS.                                                 2.0:   CWLS Log ASCII Standard-VERSION 2.0
WRAP.                                                  NO:   One line per depth step
~Well Information Block
STRT.M                                           342.1868:   Top Depth
STOP.M                                          2635.3496:   Bottom Depth
STEP.M                                             .15240:   Depth Increment
NULL.                                            -999.250:   Null Value
FLD .                                              A NAME:   Field Name
WELL.                                             WELL A:   NAME
WBN .                                             WELL A:   WELLBORE
NATI.                                                 NOR:   COUNTRY
CTRY.                                                 NOR:   COUNTRY
COMP.                               	     COMPANY NAME:   OPERATOR
PROV.                                           SOMEWHERE:   PROVINCE
COUN.                                                 RIG:   RIG NAME
SPUD.                                          1970/01/01:   SPUD DATE
LATI.                                       00 00 00.00 N:   SURF. LATITUDE
LONG.                                       00 00 00.00 E:   SURF. LONGITUDE
PBWE.                                              WELL A:   PB WELL ID
PBWB.                                              WELL A:   PB WELLBORE ID
PBWS.                                                 all:   PB WELL NAME SET
~PARAMETER INFORMATION (log)
LNAM.                                           COMPOSITE:   NAME
LTYP.                                         DEPTH MATCH:   LOG TYPE
LSRV.                                              HYBRID:   LOG SERVICE
LSOU.                                                  OD:   LOG SOURCE
LVSN.                                                   1:   LOG VERSION
BHIS.                                                   R:   BRIEF HISTORY
FHIS.                                             RAW-LIS:   FULL HISTORY
LCNM.                                                EXLO:   LOGGING CONTRACTOR
TOOL.                             DIL/BHC/GR (COMPOSITED):   TOOL STRING
QCRM.                                           HQLD data:   QC COMMENT
QCCD.                                                high:   QC LEVEL
QCCO.                                               SIMON:   QC COMPANY
QCST.                                               final:   QC STATUS
~Curve Information Block
#MNEM.UNIT                                        API CODE    No Description
#=========                                        ========    == ===========
DEPT.M                                       00 001 00 00:     1  DEPTH
HDRHO.G/CC                                               :     2  Nuclear Radiation
HNPHI.FRAC                                               :     3  Nuclear Radiation
HRHOB.G/CC                                               :     4  Nuclear Radiation
HRS.OHMM                                                 :     5  Electromagnetic Response
HDT.US/F                                                 :     6  Acoustic Response
HGR.GAPI                                                 :     7  Nuclear Radiation
HRD.OHMM                                                 :     8  Electromagnetic Response
HRM.OHMM                                                 :     9  Electromagnetic Response
HCALI.IN                                                 :    10  Formation Evaluation
~ASCII
# ...
  375.5624     -.4489      .4805     2.3164  -999.2500  -999.2500    47.3552  -999.2500  -999.2500    25.7969
  375.7148     -.3739      .4647     2.4925  -999.2500  -999.2500    42.0038  -999.2500  -999.2500    25.7969
  375.8672     -.1895      .4636     2.7481  -999.2500  -999.2500    51.1284  -999.2500  -999.2500    25.7969
  376.0196     -.1340      .5175     2.6265  -999.2500  -999.2500    51.1332  -999.2500  -999.2500    25.7969
  376.1720     -.1915      .5597     2.4778  -999.2500  -999.2500    41.1009  -999.2500  -999.2500    25.7969
  376.3244     -.1970      .5760     2.4744  -999.2500  -999.2500    47.9705  -999.2500  -999.2500    25.7969
  376.4768     -.2206      .5615     2.5803  -999.2500  -999.2500    41.1030  -999.2500  -999.2500    25.7969
  376.6292     -.4045      .5441     2.4352  -999.2500  -999.2500    42.0507  -999.2500  -999.2500    25.7969
  376.7816     -.6319      .5134     2.1958  -999.2500  -999.2500    43.5324  -999.2500  -999.2500    25.7969
  376.9340     -.6882      .5075     2.1186  -999.2500  -999.2500    45.0139  -999.2500  -999.2500    25.7969
  377.0864     -.6313      .5064     2.1665  -999.2500  -999.2500    51.1673  -999.2500  -999.2500    25.7969
  377.2388     -.5677      .5092     2.2133  -999.2500  -999.2500    47.0456  -999.2500  -999.2500    25.7969
  377.3912     -.5189      .5231     2.2613  -999.2500  -999.2500    45.2664  -999.2500  -999.2500    25.7969
  377.5436     -.4789      .5410     2.3025  -999.2500  -999.2500    47.7285  -999.2500  -999.2500    25.7969
  377.6960     -.4456      .5319     2.3369  -999.2500  -999.2500    42.8929  -999.2500  -999.2500    25.7969
  377.8484     -.4178      .5252     2.3630  -999.2500  -999.2500    44.3692  -999.2500  -999.2500    25.7969
  378.0008     -.4050      .5173     2.3689  -999.2500  -999.2500    44.7535  -999.2500  -999.2500    25.7969
  378.1532     -.3922      .5271     2.3826  -999.2500  -999.2500    43.8576  -999.2500  -999.2500    25.7969
  378.3056     -.3873      .5344     2.3800  -999.2500  -999.2500    45.7949  -999.2500  -999.2500    25.7969
  378.4580     -.3868      .5124     2.3705  -999.2500  -999.2500    47.0039  -999.2500  -999.2500    25.7969
  378.6104     -.3863      .5083     2.3639  -999.2500  -999.2500    42.8272  -999.2500  -999.2500    25.7969
  378.7628     -.3875      .5201     2.3541  -999.2500  -999.2500    44.1355  -999.2500  -999.2500    25.7969
  378.9152     -.3852      .5576     2.3572  -999.2500  -999.2500    46.4177  -999.2500  -999.2500    25.7969
  379.0676     -.3865      .5560     2.3472  -999.2500  -999.2500    44.3264  -999.2500  -999.2500    25.7969
  379.2200     -.3799      .5311     2.3608  -999.2500  -999.2500    38.3771  -999.2500  -999.2500    25.7969
  379.3724     -.3745      .4862     2.3651  -999.2500  -999.2500    45.5310  -999.2500  -999.2500    25.7969
  379.5248     -.3528      .4952     2.3934  -999.2500  -999.2500    43.3349  -999.2500  -999.2500    25.7969
  379.6772     -.3461      .5376     2.3910  -999.2500  -999.2500    40.2304  -999.2500  -999.2500    25.7969
  379.8296     -.3408      .5763     2.3995  -999.2500  -999.2500    46.2843  -999.2500  -999.2500    25.7969
  379.9820     -.3356      .6020     2.4142  -999.2500  -999.2500    50.8207  -999.2500  -999.2500    25.7969
  380.1344     -.3331      .6397     2.4214  -999.2500  -999.2500    47.8267  -999.2500  -999.2500    25.7969
  380.2868     -.3365      .5905     2.4151  -999.2500  -999.2500    44.6237  -999.2500  -999.2500    25.7969
  380.4392     -.3364      .5602     2.4012  -999.2500  -999.2500    45.5447  -999.2500  -999.2500    25.7969
  380.5916     -.3316      .5339     2.3910  -999.2500  -999.2500    46.9937  -999.2500  -999.2500    25.7969
  380.7440     -.3195      .5827     2.4052  -999.2500  -999.2500    47.9791  -999.2500  -999.2500    25.7969
  380.8964     -.3073      .5818     2.4238  -999.2500  -999.2500    44.7702  -999.2500  -999.2500    25.7969
  381.0488     -.3029      .5411     2.4442  -999.2500  -999.2500    41.1490  -999.2500  -999.2500    25.7969
  381.2012     -.2999      .5622     2.4437  -999.2500  -999.2500    56.4065  -999.2500  -999.2500    25.7969
  381.3536     -.3006      .5948     2.4368  -999.2500  -999.2500    40.6113  -999.2500  -999.2500    25.7969
  381.5060     -.2978      .6353     2.4303  -999.2500  -999.2500    60.5112  -999.2500  -999.2500    25.7969
  381.6584     -.2999      .6500     2.4322  -999.2500  -999.2500    48.6334  -999.2500  -999.2500    25.7969
  381.8108     -.3097      .6526     2.4284  -999.2500  -999.2500    44.2175  -999.2500  -999.2500    25.7969
  381.9632     -.3289      .6544     2.4596  -999.2500  -999.2500    45.7467  -999.2500  -999.2500    25.7969
  382.1156     -.3722      .6466     2.5198  -999.2500  -999.2500    46.2058  -999.2500  -999.2500    25.7969
  382.2680     -.4239      .6178     2.5747  -999.2500  -999.2500    43.2427  -999.2500  -999.2500    25.7969
  382.4204     -.4808      .5900     2.5900  -999.2500  -999.2500    40.9885  -999.2500  -999.2500    25.7969
  382.5728     -.5655      .5559     2.4932  -999.2500  -999.2500    41.5497  -999.2500  -999.2500    25.7969
  382.7252     -.6129      .5440     2.4428  -999.2500    55.0069    46.5341  -999.2500     1.5978    25.7969
  382.8776     -.5852      .5631     2.4667  -999.2500    55.6138    47.1958  -999.2500     1.5135    25.7969
  383.0300     -.5805      .5330     2.4565  -999.2500    56.0238     8.6719  -999.2500     1.5112    25.7969
  383.1824     -.5746      .5563     2.4768  -999.2500    56.0893     8.3437  -999.2500     1.5639    25.7969
  383.3348     -.5641      .5411     2.5107  -999.2500    56.1548     7.2383  -999.2500     1.4834    25.7969
  383.4872     -.5642      .5619     2.5276  -999.2500    56.2202     8.0078  -999.2500     1.5389    25.7969
  383.6396     -.5802      .5583     2.4785  -999.2500    56.2857     8.5859  -999.2500     1.4663    25.7969
  383.7920     -.5751      .5554     2.4597  -999.2500    56.3512     8.6016  -999.2500     1.5598    25.7969
  383.9444     -.5678      .5609     2.4744  -999.2500    56.4167     6.4883  -999.2500     1.6008    25.7969
  384.0968     -.5459      .5855     2.5320  -999.2500    56.4821     5.9023  -999.2500     1.5940    25.7969
  384.2492     -.5262      .5616     2.5709  -999.2500    56.5476     5.8906  -999.2500     1.4699    25.7969
  384.4016     -.5393      .5736     2.5457  -999.2500    56.6131     5.6094  -999.2500     1.3315    25.7969
  384.5540     -.5484      .5847     2.5147  -999.2500    56.6786     5.3477  -999.2500     1.3200    25.7969
  384.7064     -.5373      .6265     2.5204  -999.2500    56.7440     6.9336  -999.2500     1.3465    25.7969
  384.8588     -.5227      .6282     2.5432  -999.2500    56.8095     9.0391  -999.2500     1.4101    25.7969
  385.0112     -.5164      .5979     2.5703  -999.2500    56.8750     8.7812  -999.2500     1.4290    25.7969
  385.1636     -.5170      .5744     2.5854  -999.2500    56.1875     7.1680  -999.2500     1.4703    25.7969
  385.3160     -.5152      .5477     2.5969  -999.2500    56.1799     5.8555  -999.2500     1.4467    25.7969
  385.4684     -.5192      .5573     2.5807  -999.2500    56.1724     6.3867  -999.2500     1.3766    25.7969
  385.6208     -.5284      .5600     2.5511  -999.2500    56.1648     6.1523  -999.2500     1.3869    25.7969
  385.7732     -.5324      .5513     2.5316  -999.2500    56.1573     5.6250  -999.2500     1.3587    25.7969
  385.9256     -.5254      .5423     2.5383  -999.2500    56.1497     5.1094  -999.2500     1.3572    25.7969
  386.0780     -.5098      .5358     2.5719  -999.2500    56.1422     5.1133  -999.2500     1.3625    25.7969
  386.2304     -.4936      .5335     2.5999  -999.2500    56.1346     6.7422  -999.2500     1.3776    25.7969
  386.3828     -.4803      .5359     2.6079  -999.2500    56.1271     6.4844  -999.2500     1.2553    25.7969
  386.5352     -.4679      .5547     2.6102  -999.2500    56.1195     6.7617  -999.2500     1.2029    25.7969
