#----------------------------------------------------------------------------
~VERSION INFORMATION
VERS.            2.0                  :CWLS LOG ASCII STANDARD -VERSION 2.0
WRAP.            NO                   :ONE LINE PER DEPTH STEP
#
# Created by marten, at DESKTOP-7JFC02N, on 2020-03-17T21:40:57.014521, using version XXX
# NOTE: Some notes for well A
# Written to las on: 2020-03-17T21:52:46.162651
# Modified on: 2020-03-17T21:40:57.273821
#  Modification: sw: None, Test data generated from VCL
#--------------------------------------------------------------------
~WELL INFORMATION
#MNEM .UNIT      DATA                 :DESCRIPTION OF MNEMONIC
#----------      ------------         -------------------------------
STRT   .m        295.0                :START DEPTH
STOP   .m        2636.1688            :STOP DEPTH
STEP   .m        0.1524               :STEP DEPTH
WELL   .         Well_F               :WELL
NULL   .         -999.25              :NULL VALUE
COMP   .                              :COMPANY
WELL   .         Well_F               :WELL
LOC    .         Norway               :LOCATION - AREA
FLD    .                              :FIELD
CTRY   .         nor                  :COUNTRY
DATE   .                              :WELL DATE
XWELL  .m        0                    :X POS
YWELL  .m        0                    :Y POS
EDF    .         24.0                 :DERRICK FLOOR ELEVATION
#
# ----------------------------------------------------------------------------
~CURVE INFORMATION
# MNEM.UNIT                                         : CURVE DESCRIPTION
# ----------                                        -------------------------------
DEPTH               .m                                : 1        DEPTH
VP_DRY              .m/s                              : 2        Vp
VP_SG08             .m/s                              : 3        Vp
VP_SO08             .m/s                              : 4        Vp
VS_DRY              .m/s                              : 5        Vs
VS_SG08             .m/s                              : 6        Vs
VS_SO08             .m/s                              : 7        Vs
RHO_DRY             .g/cm3                            : 8        Rho
RHO_SG08            .g/cm3                            : 9        Rho
RHO_SO08            .g/cm3                            : 10       Rho
PHIE                .fract                            : 11       Por
VCL                 .fract                            : 12       Volume
SW                  .fract                            : 13       Fake water saturation
#
# ----------------------------------------------------------------------------
~A                  VP_DRY              VP_SG08             VP_SO08             VS_DRY              VS_SG08             VS_SO08             RHO_DRY             RHO_SG08            RHO_SO08            PHIE                VCL                 SW                  
# ...
1726.4932           3694.1856           3694.1856           3694.1856           1976.0285           1976.0285           1976.0285           2.4361              2.4361              2.4361              0.0001              1.0                 1.0                 
1726.6456           3705.1765           3705.1765           3705.1765           1984.4873           1984.4873           1984.4873           2.4385              2.4385              2.4385              0.0001              1.0                 1.0                 
1726.798            3719.3909           3719.3909           3719.3909           1995.4279           1995.4279           1995.4279           2.442               2.442               2.442               0.0001              1.0                 1.0                 
1726.9504           3734.0392           3734.0392           3734.0392           2007.1297           2007.1297           2007.1297           2.4472              2.4472              2.4472              0.0001              1.0                 1.0                 
1727.1028           3735.8618           3735.8618           3735.8618           2011.5735           2011.5735           2011.5735           2.4529              2.4529              2.4529              0.0001              1.0                 1.0                 
1727.2552           3711.1489           3711.1489           3711.1489           1996.3051           1996.3051           1996.3051           2.4551              2.4551              2.4551              0.0003              0.9937              1.0                 
1727.4076           3678.7743           3678.7743           3678.7743           1974.3565           1974.3565           1974.3565           2.4483              2.4483              2.4483              0.0008              0.9754              1.0                 
1727.56             3651.1426           3651.1426           3651.1426           1954.8221           1954.8221           1954.8221           2.4343              2.4343              2.4343              0.0012              0.9609              1.0                 
1727.7124           3642.9492           3642.9492           3642.9492           1948.2458           1948.2458           1948.2458           2.4213              2.4213              2.4213              0.0011              0.9661              1.0                 
1727.8648           3640.6984           3640.6984           3640.6984           1944.2433           1944.2433           1944.2433           2.4144              2.4144              2.4144              0.0007              0.9823              1.0                 
1728.0172           3650.8706           3650.8706           3650.8706           1950.3026           1950.3026           1950.3026           2.4153              2.4153              2.4153              0.0004              0.9964              1.0                 
1728.1696           3654.0103           3654.0103           3654.0103           1951.5628           1951.5628           1951.5628           2.4204              2.4204              2.4204              0.0003              0.9998              1.0                 
1728.322            3645.7805           3645.7805           3645.7805           1944.5455           1944.5455           1944.5455           2.4257              2.4257              2.4257              0.0003              1.0                 1.0                 
1728.4744           3645.6714           3645.6714           3645.6714           1943.9854           1943.9854           1943.9854           2.4279              2.4279              2.4279              0.0002              1.0                 1.0                 
1728.6268           3648.8164           3648.8164           3648.8164           1946.6645           1946.6645           1946.6645           2.4275              2.4275              2.4275              0.0002              1.0                 1.0                 
1728.7792           3661.6653           3661.6653           3661.6653           1959.4325           1959.4325           1959.4325           2.4269              2.4269              2.4269              0.0005              0.9839              1.0                 
1728.9316           3681.4387           3681.4387           3681.4387           1978.9792           1978.9792           1978.9792           2.4278              2.4278              2.4278              0.0014              0.9505              1.0                 
1729.084            3695.6637           3695.6637           3695.6637           1993.3988           1993.3988           1993.3988           2.4314              2.4314              2.4314              0.0027              0.9236              1.0                 
1729.2364           3698.7014           3698.7014           3698.7014           1997.6272           1997.6272           1997.6272           2.4361              2.4361              2.4361              0.0038              0.9138              1.0                 
1729.3888           3691.0098           3691.0098           3691.0098           1991.8326           1991.8326           1991.8326           2.4401              2.4401              2.4401              0.0039              0.9165              1.0                 
1729.5412           3676.5663           3676.5663           3676.5663           1978.1047           1978.1047           1978.1047           2.4416              2.4416              2.4416              0.0025              0.9412              1.0                 
1729.6936           3666.6459           3666.6459           3666.6459           1964.802            1964.802            1964.802            2.4403              2.4403              2.4403              0.0008              0.9923              1.0                 
1729.846            3660.3768           3660.3768           3660.3768           1955.3826           1955.3826           1955.3826           2.4366              2.4366              2.4366              0.0002              1.0                 1.0                 
1729.9984           3657.6687           3657.6687           3657.6687           1952.9353           1952.9353           1952.9353           2.4328              2.4328              2.4328              0.0002              1.0                 1.0                 
1730.1508           3646.6774           3646.6774           3646.6774           1948.3427           1948.3427           1948.3427           2.4293              2.4293              2.4293              0.0006              0.9666              1.0                 
1730.3032           3639.4041           3639.4041           3639.4041           1944.2279           1944.2279           1944.2279           2.4264              2.4264              2.4264              0.0008              0.9624              1.0                 
1730.4556           3637.2228           3637.2228           3637.2228           1939.6897           1939.6897           1939.6897           2.4241              2.4241              2.4241              0.0004              0.9936              1.0                 
1730.608            3641.8661           3641.8661           3641.8661           1938.4289           1938.4289           1938.4289           2.4234              2.4234              2.4234              0.0001              1.0                 1.0                 
1730.7604           3665.3457           3665.3457           3665.3457           1955.0689           1955.0689           1955.0689           2.426               2.426               2.426               0.0001              1.0                 1.0                 
1730.9128           3714.0034           3714.0034           3714.0034           1995.0214           1995.0214           1995.0214           2.4331              2.4331              2.4331              0.0001              0.9978              1.0                 
1731.0652           3772.3589           3772.3589           3772.3589           2044.3981           2044.3981           2044.3981           2.4455              2.4455              2.4455              0.0004              0.9787              1.0                 
