~VERSION INFORMATION
VERS.                                                 2.0:   CWLS Log ASCII Standard-VERSION 2.0
WRAP.                                                  NO:   One line per depth step
~Well Information Block
STRT.M                                           342.1868:   Top Depth
STOP.M                                          2635.3496:   Bottom Depth
STEP.M                                             .15240:   Depth Increment
NULL.                                            -999.250:   Null Value
FLD .                                              A NAME:   Field Name
WELL.                                             WELL A:   NAME
WBN .                                             WELL A:   WELLBORE
NATI.                                                 NOR:   COUNTRY
CTRY.                                                 NOR:   COUNTRY
COMP.                               	     COMPANY NAME:   OPERATOR
PROV.                                           SOMEWHERE:   PROVINCE
COUN.                                                 RIG:   RIG NAME
SPUD.                                          1970/01/01:   SPUD DATE
LATI.                                       00 00 00.00 N:   SURF. LATITUDE
LONG.                                       00 00 00.00 E:   SURF. LONGITUDE
PBWE.                                              WELL A:   PB WELL ID
PBWB.                                              WELL A:   PB WELLBORE ID
PBWS.                                                 all:   PB WELL NAME SET
~PARAMETER INFORMATION (log)
LNAM.                                           COMPOSITE:   NAME
LTYP.                                         DEPTH MATCH:   LOG TYPE
LSRV.                                              HYBRID:   LOG SERVICE
LSOU.                                                  OD:   LOG SOURCE
LVSN.                                                   1:   LOG VERSION
BHIS.                                                   R:   BRIEF HISTORY
FHIS.                                             RAW-LIS:   FULL HISTORY
LCNM.                                                EXLO:   LOGGING CONTRACTOR
TOOL.                             DIL/BHC/GR (COMPOSITED):   TOOL STRING
QCRM.                                           HQLD data:   QC COMMENT
QCCD.                                                high:   QC LEVEL
QCCO.                                               SIMON:   QC COMPANY
QCST.                                               final:   QC STATUS
~Curve Information Block
#MNEM.UNIT                                        API CODE    No Description
#=========                                        ========    == ===========
DEPT.M                                       00 001 00 00:     1  DEPTH
HDRHO.G/CC                                               :     2  Nuclear Radiation
HNPHI.FRAC                                               :     3  Nuclear Radiation
HRHOB.G/CC                                               :     4  Nuclear Radiation
HRS.OHMM                                                 :     5  Electromagnetic Response
HDT.US/F                                                 :     6  Acoustic Response
HGR.GAPI                                                 :     7  Nuclear Radiation
HRD.OHMM                                                 :     8  Electromagnetic Response
HRM.OHMM                                                 :     9  Electromagnetic Response
HCALI.IN                                                 :    10  Formation Evaluation
~ASCII
# ...
 1577.0840      .1048      .4522     2.1669      .8063    86.3499    59.3326     2.9912     2.6071    15.4800
 1577.2364      .0819      .4604     2.1515      .8024    84.9842    58.6046     2.9023     2.6050    15.1998
 1577.3888      .0541      .4732     2.0105     1.1637    86.5350    57.6780     2.7409     2.6927    15.0098
 1577.5412      .0264      .4819     1.8854      .9561    91.0197    56.9266     2.5793     2.8862    15.1709
 1577.6936      .0080      .4790     1.7798      .4659    96.4110    58.2062     2.6295     2.8966    15.3357
 1577.8460      .0037      .4496     1.7505      .5991   100.7631    61.1807     2.7232     2.7055    14.7493
 1577.9984      .0051      .4238     1.8146      .4952   101.0816    63.3784     2.8876     2.5406    13.9963
 1578.1508      .0063      .4025     1.9176      .4751    94.1287    62.0690     2.9509     2.5938    13.3989
 1578.3032      .0046      .3954     1.9468      .5116    87.8300    58.1389     2.9517     2.8495    13.5481
 1578.4556     -.0031      .4133     1.9003      .2899    83.5944    55.2230     2.8836     3.4804    13.8123
 1578.6080     -.0090      .4409     1.8164      .4383    85.7450    54.7813     2.8393     3.4813    13.8842
 1578.7604     -.0021      .4604     1.8065     1.6999    94.8813    56.5032     3.0330     3.1296    14.3768
 1578.9128      .0211      .4659     1.8953      .6492   101.8282    59.0391     3.1188     2.8240    15.7270
 1579.0652      .0492      .4680     1.9914      .5318   106.0651    61.2619     2.9503     2.6860    16.3569
 1579.2176      .0805      .4752     2.0389      .7680   107.7493    62.2677     2.6516     2.5481    16.7059
 1579.3700      .0903      .4907     1.9859      .7162   104.7766    61.8747     2.4560     2.3803    17.6187
 1579.5224      .0710      .5071     1.9449      .5537   102.4116    60.9807     2.4042     2.2102    18.1744
 1579.6748      .0411      .5082     1.8834      .3988   103.6153    60.0913     2.4195     2.2147    18.5578
 1579.8272      .0200      .4951     1.7501      .3009   103.7879    59.5030     2.4201     2.3434    18.4845
 1579.9796      .0139      .4894     1.7461      .4066    99.2705    59.4264     2.1950     2.3912    17.7959
 1580.1320      .0228      .4986     1.7982      .7205    96.3151    60.0555     1.9037     2.2953    16.8551
 1580.2844      .0447      .5167     1.9009      .9543   102.5102    60.8412     1.8165     2.2719    16.8279
 1580.4368      .0622      .5189     1.9496      .7894   109.8616    60.9715     1.8082     2.2669    17.4098
 1580.5892      .0717      .5045     1.9185      .6681   115.0294    60.5793     1.9097     2.2356    18.0198
 1580.7416      .0674      .4910     1.8508      .5299   116.1945    60.2368     2.0993     2.1396    17.9347
 1580.8940      .0501      .4836     1.7854      .4319   112.3737    61.3531     2.1578     2.0702    17.2366
 1581.0464      .0305      .4804     1.7514      .3559   109.6933    63.9408     2.0726     2.0466    16.1657
 1581.1988      .0204      .4851     1.7394      .6807   108.6757    65.4772     1.9909     2.0756    15.8946
 1581.3512      .0242      .4956     1.7509      .6918   108.8560    64.5909     2.1132     2.1528    15.9111
 1581.5036      .0340      .5074     1.7819      .5938   110.5487    62.9250     2.2862     2.3091    16.0108
 1581.6560      .0415      .5077     1.8158      .8057   109.8545    62.1378     2.4096     2.3273    15.9656
 1581.8084      .0355      .4956     1.8449      .5451   101.9348    61.3732     2.5256     2.2668    15.1644
 1581.9608      .0244      .4802     1.8729      .3395    99.2923    59.5766     2.4643     2.2553    13.8233
 1582.1132      .0143      .4733     1.9069      .6833   101.2585    57.4076     2.3385     2.3021    13.7628
 1582.2656      .0073      .4743     1.9272      .8248   102.7667    56.7361     2.2876     2.3674    14.7376
 1582.4180      .0072      .4751     1.8959      .5656   106.4738    59.2621     2.2731     2.3710    15.3452
 1582.5704      .0167      .4717     1.8634      .3797   108.0000    64.4920     2.2611     2.3498    15.4425
 1582.7228      .0311      .4706     1.8734      .3207   105.9247    69.3307     2.3475     2.3860    15.0265
 1582.8752      .0547      .4675     1.9366      .5005   102.7726    71.9265     2.2834     2.4434    14.6917
 1583.0276      .0734      .4529     1.9937      .6735    99.8885    72.2689     2.1391     2.5008    14.9466
 1583.1800      .0827      .4461     2.0306      .8979    99.0298    70.5587     2.0514     2.5573    15.2898
 1583.3324      .0869      .4384     2.0281      .7130   104.2973    67.6798     2.0461     2.6130    15.4381
 1583.4848      .0868      .4450     1.9984      .4431   110.3006    64.3698     2.0587     2.6286    15.3486
 1583.6372      .0786      .4576     1.9399      .8325   110.6990    61.5516     2.1283     2.5959    15.2258
 1583.7896      .0638      .4667     1.8470     2.1217   103.8375    59.8617     2.2086     2.5524    15.3954
 1583.9420      .0492      .4639     1.7365      .5797    97.7389    59.1168     2.2544     2.4839    15.5824
 1584.0944      .0388      .4506     1.6829      .3637    91.5799    59.0368     2.2671     2.4589    14.9799
 1584.2468      .0396      .4462     1.8074      .9804    89.2767    61.8370     2.2060     2.5290    13.6272
 1584.3992      .0506      .4346     1.9386     1.2294    91.9411    68.8321     2.1424     2.6993    13.3069
 1584.5516      .0657      .4186     2.0208      .6619   101.5088    76.5454     2.1007     2.7721    12.9575
 1584.7040      .0777      .3933     2.1022     1.6616   109.6728    81.0551     2.1986     2.6396    12.5998
 1584.8564      .0772      .3678     2.1599     2.1566   111.6250    81.7119     2.3566     2.4903    12.1885
 1585.0088      .0720      .3419     2.2124     2.2549   107.2454    78.0383     2.6072     2.3297    11.8034
 1585.1612      .0743      .3145     2.2575     2.4925    97.6583    71.6604     2.8420     2.3294    11.4920
 1585.3136      .0806      .2914     2.2804     4.5154    89.8657    64.8574     3.0233     2.5400    11.3304
 1585.4660      .0863      .2758     2.2862     6.1385    84.0762    58.6544     3.3251     2.9798    11.1541
 1585.6184      .0876      .2650     2.2824     6.3121    81.7112    54.4744     3.7110     3.4483    11.0640
 1585.7708      .0813      .2465     2.3028     6.3951    80.1665    51.3736     4.0972     3.9368    11.1585
 1585.9232      .0674      .2190     2.3523     6.3500    75.9839    48.5868     4.4831     4.4822    11.3538
 1586.0756      .0513      .1958     2.4391     4.5255    70.8442    46.4423     4.8693     5.3408    11.5359
 1586.2280      .0334      .1995     2.5079     3.2906    67.9238    45.4673     5.2552     6.2370    11.6637
 1586.3804      .0148      .2186     2.5285     3.6331    67.5549    45.6670     5.4323     8.3334    11.7332
 1586.5328     -.0013      .2398     2.5029     5.8488    70.4478    47.0185     5.4727     9.1333    11.7399
 1586.6852     -.0029      .2589     2.4745     5.4435    76.3991    48.8632     5.4742     7.7435    11.7392
 1586.8376      .0108      .2693     2.4556     6.2656    80.5800    49.4033     5.3801     5.8345    11.7394
 1586.9900      .0290      .2723     2.4487     6.2285    81.4134    48.4379     5.1831     4.8188    11.7526
 1587.1424      .0549      .2732     2.4619     6.5558    81.4079    47.3506     4.9427     4.8818    11.8401
 1587.2948      .0781      .2746     2.4947    17.8835    81.4023    47.4482     4.7025     4.9921    12.0584
 1587.4472      .0819      .2810     2.5232     6.5968    81.1538    48.3358     4.4621     5.1317    12.2043
 1587.5996      .0648      .2883     2.5228     2.5745    80.9932    48.9016     4.2416     5.0125    12.2878
 1587.7520      .0371      .2895     2.4910     3.0915    80.6301    49.1117     4.1399     4.7510    12.2630
 1587.9044      .0162      .2848     2.4471     1.7763    79.9669    49.2305     4.1640     4.4813    12.2145
 1588.0568      .0057      .2809     2.4294     1.2298    79.1852    49.6556     4.1704     4.2647    12.1281
