#----------------------------------------------------------------------------
~VERSION INFORMATION
VERS.            2.0                  :CWLS LOG ASCII STANDARD -VERSION 2.0
WRAP.            NO                   :ONE LINE PER DEPTH STEP
#
# Created by marten, at DESKTOP-7JFC02N, on 2020-03-17T21:40:57.014521, using version XXX
# NOTE: Some notes for well A
# Written to las on: 2020-03-17T21:52:46.162651
# Modified on: 2020-03-17T21:40:57.273821
#  Modification: sw: None, Test data generated from VCL
#--------------------------------------------------------------------
~WELL INFORMATION
#MNEM .UNIT      DATA                 :DESCRIPTION OF MNEMONIC
#----------      ------------         -------------------------------
STRT   .m        295.0                :START DEPTH
STOP   .m        2636.1688            :STOP DEPTH
STEP   .m        0.1524               :STEP DEPTH
WELL   .         Well_F               :WELL
NULL   .         -999.25              :NULL VALUE
COMP   .                              :COMPANY
WELL   .         Well_F               :WELL
LOC    .         Norway               :LOCATION - AREA
FLD    .                              :FIELD
CTRY   .         nor                  :COUNTRY
DATE   .                              :WELL DATE
XWELL  .m        0                    :X POS
YWELL  .m        0                    :Y POS
EDF    .         24.0                 :DERRICK FLOOR ELEVATION
#
# ----------------------------------------------------------------------------
~CURVE INFORMATION
# MNEM.UNIT                                         : CURVE DESCRIPTION
# ----------                                        -------------------------------
DEPTH               .m                                : 1        DEPTH
VP_DRY              .m/s                              : 2        Vp
VP_SG08             .m/s                              : 3        Vp
VP_SO08             .m/s                              : 4        Vp
VS_DRY              .m/s                              : 5        Vs
VS_SG08             .m/s                              : 6        Vs
VS_SO08             .m/s                              : 7        Vs
RHO_DRY             .g/cm3                            : 8        Rho
RHO_SG08            .g/cm3                            : 9        Rho
RHO_SO08            .g/cm3                            : 10       Rho
PHIE                .fract                            : 11       Por
VCL                 .fract                            : 12       Volume
SW                  .fract                            : 13       Fake water saturation
#
# ----------------------------------------------------------------------------
~A                  VP_DRY              VP_SG08             VP_SO08             VS_DRY              VS_SG08             VS_SO08             RHO_DRY             RHO_SG08            RHO_SO08            PHIE                VCL                 SW                  
# ...
1424.1316           2899.4246           2899.4246           2899.4246           1475.7213           1475.7213           1475.7213           2.3321              2.3321              2.3321              -999.25             0.9108              1.0                 
1424.284            2918.7103           2918.7103           2918.7103           1491.2301           1491.2301           1491.2301           2.3336              2.3336              2.3336              -999.25             0.9018              1.0                 
1424.4364           2920.0157           2920.0157           2920.0157           1492.2798           1492.2798           1492.2798           2.3341              2.3341              2.3341              -999.25             0.9077              1.0                 
1424.5888           2910.8737           2910.8737           2910.8737           1484.9282           1484.9282           1484.9282           2.3323              2.3323              2.3323              -999.25             0.9113              1.0                 
1424.7412           2898.5407           2898.5407           2898.5407           1475.0105           1475.0105           1475.0105           2.3264              2.3264              2.3264              -999.25             0.8968              1.0                 
1424.8936           2896.8208           2896.8208           2896.8208           1473.6275           1473.6275           1473.6275           2.3187              2.3187              2.3187              -999.25             0.8699              1.0                 
1425.046            2896.6006           2896.6006           2896.6006           1473.4504           1473.4504           1473.4504           2.3142              2.3142              2.3142              -999.25             0.8733              1.0                 
1425.1984           2889.1005           2889.1005           2889.1005           1467.4191           1467.4191           1467.4191           2.3154              2.3154              2.3154              -999.25             0.8909              1.0                 
1425.3508           2887.1737           2887.1737           2887.1737           1465.8696           1465.8696           1465.8696           2.3154              2.3154              2.3154              -999.25             0.8776              1.0                 
1425.5032           2883.974            2883.974            2883.974            1463.2965           1463.2965           1463.2965           2.3078              2.3078              2.3078              -999.25             0.8528              1.0                 
1425.6556           2885.2543           2885.2543           2885.2543           1464.3261           1464.3261           1464.3261           2.3022              2.3022              2.3022              -999.25             0.8398              1.0                 
1425.808            2881.6335           2881.6335           2881.6335           1461.4144           1461.4144           1461.4144           2.3017              2.3017              2.3017              -999.25             0.8632              1.0                 
1425.9604           2873.3546           2873.3546           2873.3546           1454.7569           1454.7569           1454.7569           2.3082              2.3082              2.3082              -999.25             0.8907              1.0                 
1426.1128           2877.3844           2877.3844           2877.3844           1457.9975           1457.9975           1457.9975           2.3152              2.3152              2.3152              -999.25             0.9073              1.0                 
1426.2652           2879.927            2879.927            2879.927            1460.0421           1460.0421           1460.0421           2.3196              2.3196              2.3196              -999.25             0.9135              1.0                 
1426.4176           2880.1451           2880.1451           2880.1451           1460.2175           1460.2175           1460.2175           2.3198              2.3198              2.3198              -999.25             0.9064              1.0                 
1426.57             2880.352            2880.352            2880.352            1460.3839           1460.3839           1460.3839           2.3185              2.3185              2.3185              -999.25             0.9118              1.0                 
1426.7224           2872.7119           2872.7119           2872.7119           1454.24             1454.24             1454.24             2.3203              2.3203              2.3203              -999.25             0.9356              1.0                 
1426.8748           2868.4953           2868.4953           2868.4953           1450.8492           1450.8492           1450.8492           2.3248              2.3248              2.3248              -999.25             0.9492              1.0                 
1427.0272           2871.8704           2871.8704           2871.8704           1453.5633           1453.5633           1453.5633           2.3258              2.3258              2.3258              -999.25             0.935               1.0                 
1427.1796           2873.1427           2873.1427           2873.1427           1454.5864           1454.5864           1454.5864           2.3214              2.3214              2.3214              -999.25             0.9173              1.0                 
1427.332            2881.2069           2881.2069           2881.2069           1461.0714           1461.0714           1461.0714           2.3212              2.3212              2.3212              -999.25             0.9172              1.0                 
1427.4844           2877.805            2877.805            2877.805            1458.3357           1458.3357           1458.3357           2.3235              2.3235              2.3235              -999.25             0.9426              1.0                 
1427.6368           2873.5686           2873.5686           2873.5686           1454.929            1454.929            1454.929            2.3278              2.3278              2.3278              -999.25             0.944               1.0                 
1427.7892           2880.1403           2880.1403           2880.1403           1460.2136           1460.2136           1460.2136           2.3261              2.3261              2.3261              -999.25             0.9192              1.0                 
1427.9416           2886.7472           2886.7472           2886.7472           1465.5266           1465.5266           1465.5266           2.3187              2.3187              2.3187              -999.25             0.8753              1.0                 
1428.094            2895.5356           2895.5356           2895.5356           1472.5939           1472.5939           1472.5939           2.3107              2.3107              2.3107              -999.25             0.8478              1.0                 
1428.2464           2892.5229           2892.5229           2892.5229           1470.1712           1470.1712           1470.1712           2.308               2.308               2.308               -999.25             0.8652              1.0                 
1428.3988           2883.3363           2883.3363           2883.3363           1462.7837           1462.7837           1462.7837           2.3136              2.3136              2.3136              -999.25             0.9035              1.0                 
1428.5512           2870.8165           2870.8165           2870.8165           1452.7158           1452.7158           1452.7158           2.3205              2.3205              2.3205              -999.25             0.9542              1.0                 
1428.7036           2854.4377           2854.4377           2854.4377           1439.5446           1439.5446           1439.5446           2.327               2.327               2.327               -999.25             0.9802              1.0                 
