~Version
 VERS              .         3.0                           : CWLS LOG ASCII STANDARD - VERSION 3.0
 WRAP              .         NO                            : ONE LINE PER DEPTH STEP
 DLM               .         SPACE                         : DELIMITING CHARACTER(SPACE TAB OR COMMA)
~Well Information
#_______________________________________________________________________________
#
#PARAMETER_NAME    .UNIT     VALUE                         : DESCRIPTION
#_______________________________________________________________________________
STRT               .m        563.118                       : First reference value
STOP               .m        914.2476                      : Last reference value
STEP               .m        0.1524                        : Step increment
NULL               .         -9999                         : Missing value
COMP               .         SomeCompany                   : Company
WELL               .         Well_E                        : Well name
FLD                .                                       : Field
LOC                .                                       : Location
SRVC               .                                       : Service Company
CTRY               .         NO                            : Country
DATE               .                                       : Service Date
LATI               .deg      70.000000                     : Latitude
LONG               .deg      35.000000                     : Longitude
GDAT               .                                       : Geodetic Datum
Completion_date    .         2020-02-17                    : Completed date
COUNTRY            .         Norway                        : 
EREF               .m        25.0                          : Kelly bushing elevation
DREF               .m        MSL                           : 
HZCS               .         ED50-UTM35                    : UTM zone
LGWN               .         Well_E                        : Wellbore name
OPER               .         SomeCompany                   : Drilling operator group
SPDA               .         2020-02-17                    : Entered date
SHWN               .         Well_E                        : Well name
STAT               .         BARENTS SEA                   : Main area
TD                 .m        930.0                         : Total depth
UWI                .         Well_E                        : NPDID wellbore
Water_depth        .m        400.0                         : Water depth
X                  .m        400000.00                     : EW UTM
Y                  .m        8000000.00                    : NS UTM
~Parameter Information Block
#_______________________________________________________________________________
#
#PARAMETER_NAME    .UNIT     VALUE                         : DESCRIPTION
#_______________________________________________________________________________
SET                .         CPI                           : 
TLFamily_DEPTH     .         Measured Depth                : 
TLFamily_PHIE      .         Effective Porosity            : 
TLFamily_PHIT      .         Total Porosity                : 
TLFamily_SW        .         Water Saturation              : 
TLFamily_VSH       .         Shale Volume Fraction         : 
~Curve Information
#_______________________________________________________________________________
#
#LOGNAME           .UNIT     LOG_ID                        : DESCRIPTION
#_______________________________________________________________________________
DEPTH              .m                                      :  {F}
PHIE_test          .v/v                                    : Porosity {F}
PHIT_test          .v/v                                    : Porosity {F}
SW_test            .v/v                                    :  {F}
VSH_test           .v/v                                    : Vshale {F}
~Ascii
# ...
652.1196   0          0.08386299 1          1         
652.272    0          0.08691049 1          1         
652.4244   0          0.09096728 1          1         
652.5768   0          0.09426422 1          1         
652.7292   0          0.09320679 1          1         
652.8816   0          0.09053901 1          1         
653.034    0          0.08849081 1          1         
653.1864   0          0.09091547 1          1         
653.3388   0          0.09470986 1          1         
653.4912   0          0.09176362 1          1         
653.6436   0          0.0910809  1          1         
653.796    0          0.08697715 1          1         
653.9484   0          0.08824886 1          1         
654.1008   0          0.09010249 1          1         
654.2532   0          0.09196731 1          1         
654.4056   0          0.09260927 1          1         
654.558    0          0.0897303  1          1         
654.7104   0          0.08817601 1          1         
654.8628   0          0.08675183 1          1         
655.0152   0          0.08576122 1          1         
655.1676   0          0.0876877  1          1         
655.32     0          0.0887519  1          1         
655.4724   0          0.09060803 1          1         
655.6248   0          0.09069207 1          1         
655.7772   0          0.09077846 1          0.9654131 
655.9296   0          0.09453958 1          1         
656.082    0          0.09462848 1          1         
656.2344   0          0.09350438 1          1         
656.3868   0          0.08507171 1          1         
656.5392   0          0.07327353 1          1         
656.6916   0          0.07230999 1          1         
656.844    0          0.07374448 1          1         
656.9964   0          0.08700129 1          1         
657.1488   0          0.09160689 1          1         
657.3012   0          0.09636246 1          1         
657.4536   0          0.09353955 1          1         
657.606    0          0.08955001 1          1         
657.7584   0          0.08998034 1          1         
657.9108   0          0.09335558 1          1         
658.0632   0          0.09551798 1          1         
658.2156   0          0.09477962 1          1         
658.368    0          0.09428645 1          1         
658.5204   0          0.09296852 1          1         
658.6728   0          0.08890554 1          1         
658.8252   0          0.08484331 1          1         
658.9776   0          0.08535679 1          1         
659.13     0          0.09174876 1          1         
659.2824   0          0.09230875 1          1         
659.4348   0          0.08659759 1          1         
659.5872   0          0.07775123 1          1         
659.7396   0          0.07766985 1          1         
659.892    0          0.08704882 1          1         
660.0444   0          0.09489691 1          1         
660.1968   0          0.09341548 1          1         
660.3492   0          0.09472222 1          1         
660.5016   0          0.09729391 1          1         
660.654    0          0.09971179 1          1         
660.8064   0          0.09898271 1          1         
660.9588   0          0.1067038  1          1         
661.1112   0          0.1157964  1          1         
661.2636   0          0.1224069  1          1         
661.416    0.0009895819 0.1244464  1          1         
661.5684   0.0009209993 0.1243778  1          1         
661.7208   0          0.09802344 1          1         
661.8732   0          0.02838888 1          1         
662.0256   0          0          1          0.9139739 
662.178    0          0          1          0.8764061 
662.3304   0          0          1          0.9050374 
662.4828   0          0          1          0.9476731 
662.6352   0          0.05598816 1          0.9400469 
662.7876   0.06271996 0.1584403  0.2833933  0.8088366 
662.94     0.1610429  0.2195551  0.06034706 0.4944285 
663.0924   0.2163883  0.2447592  0.01962756 0.2397346 
663.2448   0.2297417  0.2438232  0.01275474 0.1189887 
663.3972   0.2241975  0.2374367  0.01301705 0.1118708 
663.5496   0.2253942  0.2365621  0.01295943 0.09436947
663.702    0.228073   0.2353959  0.01283246 0.06187784
663.8544   0.2351032  0.2404083  0.01251189 0.04482843
664.0068   0.2321324  0.239403   0.01264518 0.06143686
664.1592   0.2287934  0.2393906  0.0131732  0.08954584
664.3116   0.2245864  0.2393272  0.01299827 0.1245604 
664.464    0.229347   0.2443272  0.01277303 0.1265832 
664.6164   0.2341002  0.2456095  0.01255654 0.09725355
664.7688   0.2365911  0.2455356  0.01244628 0.07558113
664.9212   0.2350194  0.2426326  0.0125156  0.06433208
665.0736   0.2332117  0.2424698  0.01259639 0.07823095
665.226    0.2281009  0.2397355  0.01382764 0.09831244
665.3784   0.2284937  0.2402664  0.01609746 0.09947895
665.5308   0.2287701  0.2404852  0.02253426 0.09899279
665.6832   0.2285917  0.2387504  0.02047    0.08584034
665.8356   0.2281313  0.2350698  0.02013651 0.05863077
665.988    0.2283896  0.2352202  0.01834338 0.05771912
666.1404   0.2374749  0.2445208  0.0206265  0.0595381 
666.2928   0.2414832  0.2502166  0.01959604 0.07379721
666.4452   0.2388337  0.2478113  0.02073767 0.07586026
666.5976   0.2295392  0.2399846  0.01741261 0.08826364
666.75     0.2235957  0.2369615  0.01304624 0.1129412 
666.9024   0.223841   0.2393657  0.01303433 0.1311844 
667.0548   0.2281288  0.2426302  0.01282984 0.1225369 
667.2072   0.2326762  0.2450532  0.01262055 0.104586  
667.3596   0.2333921  0.2445421  0.01258828 0.09421722
667.512    0.2362288  0.246474   0.01246218 0.08657227
667.6644   0.237916   0.2490859  0.01238849 0.09438566
667.8168   0.2436482  0.2532883  0.01214513 0.08145818
667.9692   0.2389719  0.2526498  0.01234286 0.1155774 
668.1216   0.2339449  0.2483646  0.01256349 0.1218462 
668.274    0.2305795  0.2434711  0.02050409 0.1089338 
668.4264   0.2257965  0.2367201  0.02932845 0.09230443
668.5788   0.2262465  0.2343587  0.0359541  0.06854799
668.7312   0.2209457  0.2306124  0.03325502 0.08168348
668.8836   0.2247779  0.2321036  0.02745549 0.06190192
669.036    0.2256248  0.2340929  0.02583499 0.0715554 
669.1884   0.2320179  0.2394497  0.02422088 0.06279844
669.3408   0.2291641  0.2378775  0.02916802 0.0736286 
669.4932   0.2267655  0.2338722  0.03494775 0.06005199
669.6456   0.2242004  0.2328794  0.03077286 0.07333739
669.798    0.2312029  0.2398266  0.03008885 0.07287034
669.9504   0.2346623  0.249177   0.04208806 0.1226496 
670.1028   0.2431732  0.2567723  0.043578   0.1149119 
670.2552   0.2486816  0.2606681  0.03003087 0.1012859 
670.4076   0.2504497  0.2575775  0.01470806 0.06023036
670.56     0.2443227  0.2506805  0.01211718 0.05372294
670.7124   0.2343033  0.2419136  0.01254747 0.0643073 
670.8648   0.2378127  0.2444427  0.01239298 0.05602278
671.0172   0.2361821  0.2472101  0.02167497 0.09318712
671.1696   0.2417504  0.2516042  0.01978503 0.08326452
671.322    0.2370265  0.2478918  0.01870948 0.09181157
671.4744   0.2356548  0.2452125  0.01948739 0.08076278
671.6268   0.2317879  0.2425243  0.0271129  0.09072243
671.7792   0.2277326  0.2408669  0.04470493 0.1109853 
671.9316   0.22412    0.2380113  0.05827786 0.1173814 
672.084    0.224985   0.2372646  0.04677429 0.1037623 
672.2364   0.2272942  0.2374433  0.0294379  0.08576   
672.3888   0.2211956  0.2272575  0.03532978 0.05122306
672.5412   0.1809445  0.1863007  0.05948627 0.04525939
672.6936   0.1186164  0.1235131  0.07921698 0.04137696
672.846    0.06075603 0.06557103 0.07911264 0.0406868 
672.9984   0.04250526 0.04664328 0.1388164  0.03496618
673.1508   0.05423192 0.05752546 0.1377918  0.02783044
673.3032   0.07624491 0.08218697 0.08952398 0.05021044
673.4556   0.1067881  0.114606   0.06509292 0.06606087
673.608    0.1600175  0.1714344  0.06080787 0.0964726 
673.7604   0.2238498  0.2328338  0.05130556 0.0759148 
673.9128   0.2559978  0.2639995  0.04645336 0.06761425
674.0652   0.2548485  0.2601468  0.04005166 0.04477138
674.2176   0.2396245  0.2451036  0.03673759 0.04629809
