#----------------------------------------------------------------------------
~VERSION INFORMATION
VERS.            2.0                  :CWLS LOG ASCII STANDARD -VERSION 2.0
WRAP.            NO                   :ONE LINE PER DEPTH STEP
#
# Created by marten, at DESKTOP-7JFC02N, on 2020-03-17T21:40:57.014521, using version XXX
# NOTE: Some notes for well A
# Written to las on: 2020-03-17T21:52:46.162651
# Modified on: 2020-03-17T21:40:57.273821
#  Modification: sw: None, Test data generated from VCL
#--------------------------------------------------------------------
~WELL INFORMATION
#MNEM .UNIT      DATA                 :DESCRIPTION OF MNEMONIC
#----------      ------------         -------------------------------
STRT   .m        295.0                :START DEPTH
STOP   .m        2636.1688            :STOP DEPTH
STEP   .m        0.1524               :STEP DEPTH
WELL   .         Well_F               :WELL
NULL   .         -999.25              :NULL VALUE
COMP   .                              :COMPANY
WELL   .         Well_F               :WELL
LOC    .         Norway               :LOCATION - AREA
FLD    .                              :FIELD
CTRY   .         nor                  :COUNTRY
DATE   .                              :WELL DATE
XWELL  .m        0                    :X POS
YWELL  .m        0                    :Y POS
EDF    .         24.0                 :DERRICK FLOOR ELEVATION
#
# ----------------------------------------------------------------------------
~CURVE INFORMATION
# MNEM.UNIT                                         : CURVE DESCRIPTION
# ----------                                        -------------------------------
DEPTH               .m                                : 1        DEPTH
VP_DRY              .m/s                              : 2        Vp
VP_SG08             .m/s                              : 3        Vp
VP_SO08             .m/s                              : 4        Vp
VS_DRY              .m/s                              : 5        Vs
VS_SG08             .m/s                              : 6        Vs
VS_SO08             .m/s                              : 7        Vs
RHO_DRY             .g/cm3                            : 8        Rho
RHO_SG08            .g/cm3                            : 9        Rho
RHO_SO08            .g/cm3                            : 10       Rho
PHIE                .fract                            : 11       Por
VCL                 .fract                            : 12       Volume
SW                  .fract                            : 13       Fake water saturation
#
# ----------------------------------------------------------------------------
~A                  VP_DRY              VP_SG08             VP_SO08             VS_DRY              VS_SG08             VS_SO08             RHO_DRY             RHO_SG08            RHO_SO08            PHIE                VCL                 SW                  
# ...
824.1328            2475.0616           2475.0616           2475.0616           1134.4655           1134.4655           1134.4655           2.2262              2.2262              2.2262              -999.25             0.8212              1.0                 
824.2852            2469.5784           2469.5784           2469.5784           1130.0562           1130.0562           1130.0562           2.242               2.242               2.242               -999.25             0.8958              1.0                 
824.4376            2456.2025           2456.2025           2456.2025           1119.2998           1119.2998           1119.2998           2.2593              2.2593              2.2593              -999.25             0.9645              1.0                 
824.59              2445.124            2445.124            2445.124            1110.3909           1110.3909           1110.3909           2.2652              2.2652              2.2652              -999.25             0.9677              1.0                 
824.7424            2437.9382           2437.9382           2437.9382           1104.6124           1104.6124           1104.6124           2.2567              2.2567              2.2567              -999.25             0.9564              1.0                 
824.8948            2430.1977           2430.1977           2430.1977           1098.3878           1098.3878           1098.3878           2.2514              2.2514              2.2514              -999.25             0.9611              1.0                 
825.0472            2424.6072           2424.6072           2424.6072           1093.8921           1093.8921           1093.8921           2.2548              2.2548              2.2548              -999.25             0.9863              1.0                 
825.1996            2415.6006           2415.6006           2415.6006           1086.6494           1086.6494           1086.6494           2.2662              2.2662              2.2662              -999.25             0.9991              1.0                 
825.352             2416.3527           2416.3527           2416.3527           1087.2542           1087.2542           1087.2542           2.2701              2.2701              2.2701              -999.25             1.0                 1.0                 
825.5044            2431.1077           2431.1077           2431.1077           1099.1196           1099.1196           1099.1196           2.2658              2.2658              2.2658              -999.25             0.9873              1.0                 
825.6568            2446.0431           2446.0431           2446.0431           1111.13             1111.13             1111.13             2.2642              2.2642              2.2642              -999.25             0.9657              1.0                 
825.8092            2450.6522           2450.6522           2450.6522           1114.8364           1114.8364           1114.8364           2.261               2.261               2.261               -999.25             0.9447              1.0                 
825.9616            2453.4287           2453.4287           2453.4287           1117.0692           1117.0692           1117.0692           2.2566              2.2566              2.2566              -999.25             0.9333              1.0                 
826.114             2451.1115           2451.1115           2451.1115           1115.2058           1115.2058           1115.2058           2.2553              2.2553              2.2553              -999.25             0.9431              1.0                 
826.2664            2445.5881           2445.5881           2445.5881           1110.7641           1110.7641           1110.7641           2.2569              2.2569              2.2569              -999.25             0.9432              1.0                 
826.4188            2448.181            2448.181            2448.181            1112.8492           1112.8492           1112.8492           2.2552              2.2552              2.2552              -999.25             0.9413              1.0                 
826.5712            2437.7935           2437.7935           2437.7935           1104.496            1104.496            1104.496            2.2507              2.2507              2.2507              -999.25             0.9334              1.0                 
826.7236            2441.7599           2441.7599           2441.7599           1107.6856           1107.6856           1107.6856           2.2477              2.2477              2.2477              -999.25             0.9212              1.0                 
826.876             2440.9917           2440.9917           2440.9917           1107.0679           1107.0679           1107.0679           2.2457              2.2457              2.2457              -999.25             0.923               1.0                 
827.0284            2439.4695           2439.4695           2439.4695           1105.8438           1105.8438           1105.8438           2.248               2.248               2.248               -999.25             0.9345              1.0                 
827.1808            2443.2866           2443.2866           2443.2866           1108.9133           1108.9133           1108.9133           2.2522              2.2522              2.2522              -999.25             0.9354              1.0                 
827.3332            2441.9085           2441.9085           2441.9085           1107.8052           1107.8052           1107.8052           2.2499              2.2499              2.2499              -999.25             0.9217              1.0                 
827.4856            2451.1179           2451.1179           2451.1179           1115.211            1115.211            1115.211            2.2476              2.2476              2.2476              -999.25             0.897               1.0                 
827.638             2478.0469           2478.0469           2478.0469           1136.8662           1136.8662           1136.8662           2.2524              2.2524              2.2524              -999.25             0.8741              1.0                 
827.7904            2500.7606           2500.7606           2500.7606           1155.1316           1155.1316           1155.1316           2.2551              2.2551              2.2551              -999.25             0.8318              1.0                 
827.9428            2533.4009           2533.4009           2533.4009           1181.3796           1181.3796           1181.3796           2.25                2.25                2.25                -999.25             0.7452              0.9452              
828.0952            2579.2905           2579.2905           2579.2905           1218.2823           1218.2823           1218.2823           2.2385              2.2385              2.2385              -999.25             0.6346              0.8346              
828.2476            2633.258            2633.258            2633.258            1261.6808           1261.6808           1261.6808           2.2362              2.2362              2.2362              -999.25             0.5916              0.7916000000000001  
828.4               2684.7371           2684.7371           2684.7371           1303.0782           1303.0782           1303.0782           2.2569              2.2569              2.2569              -999.25             0.6062              0.8062              
828.5524            2719.9253           2719.9253           2719.9253           1331.3751           1331.3751           1331.3751           2.2786              2.2786              2.2786              -999.25             0.6255              0.8254999999999999  
828.7048            2708.3525           2708.3525           2708.3525           1322.0688           1322.0688           1322.0688           2.2788              2.2788              2.2788              -999.25             0.6528              0.8528              
