~Version
 VERS              .         3.0                           : CWLS LOG ASCII STANDARD - VERSION 3.0
 WRAP              .         NO                            : ONE LINE PER DEPTH STEP
 DLM               .         SPACE                         : DELIMITING CHARACTER(SPACE TAB OR COMMA)
~Well Information
#_______________________________________________________________________________
#
#PARAMETER_NAME    .UNIT     VALUE                         : DESCRIPTION
#_______________________________________________________________________________
STRT               .m        563.118                       : First reference value
STOP               .m        914.2476                      : Last reference value
STEP               .m        0.1524                        : Step increment
NULL               .         -9999                         : Missing value
COMP               .         SomeCompany                   : Company
WELL               .         Well_E                        : Well name
FLD                .                                       : Field
LOC                .                                       : Location
SRVC               .                                       : Service Company
CTRY               .         NO                            : Country
DATE               .                                       : Service Date
LATI               .deg      70.000000                     : Latitude
LONG               .deg      35.000000                     : Longitude
GDAT               .                                       : Geodetic Datum
Completion_date    .         2020-02-17                    : Completed date
COUNTRY            .         Norway                        : 
EREF               .m        25.0                          : Kelly bushing elevation
DREF               .m        MSL                           : 
HZCS               .         ED50-UTM35                    : UTM zone
LGWN               .         Well_E                        : Wellbore name
OPER               .         SomeCompany                   : Drilling operator group
SPDA               .         2020-02-17                    : Entered date
SHWN               .         Well_E                        : Well name
STAT               .         BARENTS SEA                   : Main area
TD                 .m        930.0                         : Total depth
UWI                .         Well_E                        : NPDID wellbore
Water_depth        .m        400.0                         : Water depth
X                  .m        400000.00                     : EW UTM
Y                  .m        8000000.00                    : NS UTM
~Parameter Information Block
#_______________________________________________________________________________
#
#PARAMETER_NAME    .UNIT     VALUE                         : DESCRIPTION
#_______________________________________________________________________________
SET                .         CPI                           : 
TLFamily_DEPTH     .         Measured Depth                : 
TLFamily_PHIE      .         Effective Porosity            : 
TLFamily_PHIT      .         Total Porosity                : 
TLFamily_SW        .         Water Saturation              : 
TLFamily_VSH       .         Shale Volume Fraction         : 
~Curve Information
#_______________________________________________________________________________
#
#LOGNAME           .UNIT     LOG_ID                        : DESCRIPTION
#_______________________________________________________________________________
DEPTH              .m                                      :  {F}
PHIE_test          .v/v                                    : Porosity {F}
PHIT_test          .v/v                                    : Porosity {F}
SW_test            .v/v                                    :  {F}
VSH_test           .v/v                                    : Vshale {F}
~Ascii
# ...
785.622    0          0          1          0.574144  
785.7744   0          0          1          0.510963  
785.9268   0          0.004415453 1          0.4349457 
786.0792   0          0.01504259 1          0.4367343 
786.2316   0          0.04156739 1          0.4299881 
786.384    0.01118703 0.06537098 1          0.43889   
786.5364   0.0383765  0.08447906 1          0.3734306 
786.6888   0.07096922 0.1042241  0.9159151  0.2693644 
786.8412   0.1236866  0.1401655  0.8582116  0.1334793 
786.9936   0.1832878  0.1872501  1          0.03209491
787.146    0.2159277  0.2187031  0.5832563  0.0224811 
787.2984   0.1996976  0.2205803  0.6023859  0.1691497 
787.4508   0.1802701  0.2122822  0.6915872  0.2592974 
787.6032   0.1624835  0.2009309  0.5612428  0.3114244 
787.7556   0.1536063  0.2002636  0.5981371  0.3779242 
787.908    0.1403267  0.1962063  0.6608447  0.4526241 
788.0604   0.148634   0.1932753  0.5847477  0.3615943 
788.2128   0.1369206  0.1819919  0.6655897  0.3650779 
788.3652   0.1074123  0.1588636  1          0.4167554 
788.5176   0.05594623 0.1314914  1          0.6119155 
788.67     0.01319763 0.1082846  1          0.7702041 
788.8224   0.009490025 0.112221   1          0.8321205 
788.9748   0.03105943 0.1268722  1          0.7760835 
789.1272   0.09060771 0.1519383  1          0.4967774 
789.2796   0.1264843  0.1740049  1          0.384917  
789.432    0.1513088  0.1854512  0.8118994  0.2765538 
789.5844   0.1382076  0.1834322  0.9168147  0.3663189 
789.7368   0.1113412  0.1688285  0.9530295  0.4656465 
789.8892   0.06894732 0.1473896  1          0.6353825 
790.0416   0.03657381 0.1297235  1          0.7545127 
790.194    0.008541221 0.1151952  1          0.8638968 
790.3464   0.01242155 0.1144728  1          0.8266153 
790.4988   0.04185803 0.1196624  1          0.6302155 
790.6512   0.069305   0.1285407  1          0.4798093 
790.8036   0.08297305 0.1325049  1          0.4012083 
790.956    0.07504226 0.1321347  1          0.4624483 
791.1084   0.06237036 0.1282802  1          0.5338698 
791.2608   0.06066708 0.1288945  1          0.5526422 
791.4132   0.06526883 0.1368895  1          0.5801272 
791.5656   0.06197544 0.1416951  1          0.6457291 
791.718    0.04738994 0.1290563  1          0.6614971 
791.8704   0.008283233 0.1023488  1          0.7619311 
792.0228   0          0.07836303 1          0.8171962 
792.1752   0          0.07171851 1          0.9329891 
792.3276   0          0.07804455 1          0.9580411 
792.48     0          0.08390803 1          0.9720795 
792.6324   0          0.08536121 1          0.9154708 
792.7848   0          0.09370497 1          0.9031349 
792.9372   0.006216105 0.1111297  1          0.8497999 
793.0896   0.03328662 0.1278352  1          0.7658431 
793.242    0.05280559 0.1311192  1          0.6343399 
793.3944   0.04314122 0.1215099  1          0.634786  
793.5468   0.02782246 0.1136531  1          0.695228  
793.6992   0.01248477 0.1084932  1          0.7776685 
793.8516   0.01306611 0.1100421  1          0.7855053 
794.004    0.02600794 0.1134285  1          0.7081065 
794.1564   0.03294778 0.1158686  1          0.6716588 
794.3088   0.03419436 0.1137729  1          0.6445861 
794.4612   0.04358328 0.1191426  1          0.6120305 
794.6136   0.05628434 0.129734   1          0.5949421 
794.766    0.06640477 0.1377112  1          0.5775816 
794.9184   0.05958155 0.1290445  1          0.5626497 
795.0708   0.0254624  0.1096753  1          0.6821246 
795.2232   0.00117462 0.09548457 1          0.7639105 
795.3756   0          0.09155317 1          0.8406613 
795.528    0          0.09350246 1          0.7842695 
795.6804   0.001471849 0.09443023 1          0.7529628 
795.8328   0.001794972 0.09740987 1          0.7744806 
795.9852   0.01624353 0.1005611  1          0.6829724 
796.1376   0.02466216 0.108055   1          0.6754817 
796.29     0.04490016 0.1219771  1          0.6243234 
796.4424   0.09154611 0.1549364  1          0.5134616 
796.5948   0.1466175  0.185476   1          0.3147537 
796.7472   0.1704048  0.1963537  1          0.2101865 
796.8996   0.1338271  0.1726549  1          0.3145051 
797.052    0.09214409 0.1469846  1          0.4442081 
797.2044   0.05304445 0.1286872  1          0.6127059 
797.3568   0.05410014 0.1328174  1          0.6376096 
797.5092   0.07303055 0.1443932  1          0.5780373 
797.6616   0.09472874 0.1561106  1          0.4971929 
797.814    0.1054045  0.1582784  1          0.4282787 
797.9664   0.09053979 0.1514315  1          0.4932231 
798.1188   0.08684275 0.1466395  1          0.4843535 
798.2712   0.08331089 0.150079   1          0.540822  
798.4236   0.1008053  0.164497   1          0.5159031 
798.576    0.1045319  0.1687192  1          0.5199171 
798.7284   0.08954529 0.1527976  1          0.5123436 
798.8808   0.06037147 0.1294352  1          0.5594164 
799.0332   0.05551819 0.1238359  1          0.5533736 
799.1856   0.06461499 0.1308161  1          0.5362293 
799.338    0.05748422 0.1297821  1          0.5856128 
799.4904   0.03349001 0.1206012  1          0.7056007 
799.6428   0.0284417  0.1115154  1          0.672897  
799.7952   0.02247409 0.1089451  1          0.7004148 
799.9476   0.03282157 0.1098383  1          0.623835  
800.1      0.02500416 0.1114754  1          0.7004169 
800.2524   0.04019449 0.1121469  1          0.5828147 
800.4048   0.02747873 0.1089371  1          0.6598129 
800.5572   0.02554596 0.1054908  1          0.6475531 
800.7096   0.01684374 0.1026538  1          0.6950611 
800.862    0.02773189 0.1064228  1          0.6373965 
801.0144   0.03116533 0.1071686  1          0.615626  
801.1668   0.03525085 0.1044871  1          0.5608134 
801.3192   0.01220654 0.09404758 1          0.6629123 
801.4716   0.003891825 0.08998402 1          0.6973467 
801.624    0.0115717  0.09293526 1          0.6590447 
801.7764   0.02860682 0.1028951  1          0.6017352 
801.9288   0.0294927  0.1105944  1          0.6569238 
802.0812   0.03140644 0.1158371  1          0.6838885 
802.2336   0.03627913 0.1163514  1          0.6485848 
802.386    0.043386   0.1165315  1          0.5924783 
802.5384   0.04360453 0.1210772  1          0.6275284 
802.6908   0.03208534 0.1192655  1          0.7061591 
802.8432   0.03822922 0.1236883  1          0.6922185 
802.9956   0.05125789 0.1274933  1          0.6175066 
803.148    0.06492715 0.1309265  1          0.5345948 
803.3004   0.06072958 0.1275876  1          0.5415501 
803.4528   0.05369748 0.123616   1          0.5663403 
803.6052   0.05256664 0.1222722  1          0.5646151 
803.7576   0.05372883 0.1251253  1          0.5783114 
803.91     0.03812788 0.123313   1          0.6899995 
804.0624   0.03692903 0.1265383  1          0.7258349 
804.2148   0.04797802 0.1286     1          0.6530381 
804.3672   0.04880807 0.1280309  1          0.6417049 
804.5196   0.03893481 0.1200408  1          0.6569585 
804.672    0.02230123 0.1100038  1          0.7103909 
804.8244   0.04383038 0.1142081  1          0.5700592 
804.9768   0.07190302 0.1290173  1          0.4626253 
805.1292   0.09720296 0.139705   1          0.3442667 
805.2816   0.09335969 0.1328267  1          0.3196824 
805.434    0.07732624 0.1149716  1          0.3049274 
805.5864   0.04131364 0.09980746 1          0.4737998 
805.7388   0.01873785 0.09578333 1          0.6240683 
805.8912   0          0.1014717  1          0.8289747 
806.0436   0.0155023  0.1081481  1          0.7504311 
806.196    0.0216058  0.1101692  1          0.7173638 
806.3484   0.03269209 0.1150988  1          0.6674939 
806.5008   0.0345287  0.1204     1          0.6955578 
806.6532   0.04148952 0.1279592  1          0.7004046 
806.8056   0.03701069 0.1284951  1          0.7410236 
806.958    0.05038691 0.1330872  1          0.6698719 
807.1104   0.0640444  0.1428951  1          0.6386908 
807.2628   0.1047319  0.1618513  1          0.4626676 
807.4152   0.14976    0.1876513  1          0.3069195 
807.5676   0.1920814  0.2141951  0.9299403  0.1791209 
807.72     0.2268533  0.2336698  0.8244757  0.05521361
