~VERSION INFORMATION
VERS.                                                 2.0:   CWLS Log ASCII Standard-VERSION 2.0
WRAP.                                                  NO:   One line per depth step
~Well Information Block
STRT.M                                           342.1868:   Top Depth
STOP.M                                          2635.3496:   Bottom Depth
STEP.M                                             .15240:   Depth Increment
NULL.                                            -999.250:   Null Value
FLD .                                              A NAME:   Field Name
WELL.                                             WELL A:   NAME
WBN .                                             WELL A:   WELLBORE
NATI.                                                 NOR:   COUNTRY
CTRY.                                                 NOR:   COUNTRY
COMP.                               	     COMPANY NAME:   OPERATOR
PROV.                                           SOMEWHERE:   PROVINCE
COUN.                                                 RIG:   RIG NAME
SPUD.                                          1970/01/01:   SPUD DATE
LATI.                                       00 00 00.00 N:   SURF. LATITUDE
LONG.                                       00 00 00.00 E:   SURF. LONGITUDE
PBWE.                                              WELL A:   PB WELL ID
PBWB.                                              WELL A:   PB WELLBORE ID
PBWS.                                                 all:   PB WELL NAME SET
~PARAMETER INFORMATION (log)
LNAM.                                           COMPOSITE:   NAME
LTYP.                                         DEPTH MATCH:   LOG TYPE
LSRV.                                              HYBRID:   LOG SERVICE
LSOU.                                                  OD:   LOG SOURCE
LVSN.                                                   1:   LOG VERSION
BHIS.                                                   R:   BRIEF HISTORY
FHIS.                                             RAW-LIS:   FULL HISTORY
LCNM.                                                EXLO:   LOGGING CONTRACTOR
TOOL.                             DIL/BHC/GR (COMPOSITED):   TOOL STRING
QCRM.                                           HQLD data:   QC COMMENT
QCCD.                                                high:   QC LEVEL
QCCO.                                               SIMON:   QC COMPANY
QCST.                                               final:   QC STATUS
~Curve Information Block
#MNEM.UNIT                                        API CODE    No Description
#=========                                        ========    == ===========
DEPT.M                                       00 001 00 00:     1  DEPTH
HDRHO.G/CC                                               :     2  Nuclear Radiation
HNPHI.FRAC                                               :     3  Nuclear Radiation
HRHOB.G/CC                                               :     4  Nuclear Radiation
HRS.OHMM                                                 :     5  Electromagnetic Response
HDT.US/F                                                 :     6  Acoustic Response
HGR.GAPI                                                 :     7  Nuclear Radiation
HRD.OHMM                                                 :     8  Electromagnetic Response
HRM.OHMM                                                 :     9  Electromagnetic Response
HCALI.IN                                                 :    10  Formation Evaluation
~ASCII
# ...
 2177.8448      .0055      .3109     2.5885     4.2806    89.2394   153.4309     3.0270     4.1827     6.1914
 2177.9972      .0066      .3145     2.5836     3.2616    89.5770   155.5650     2.9814     4.2055     6.1914
 2178.1496      .0076      .3186     2.5795     4.1076    89.3085   157.9707     2.9345     4.3997     6.1914
 2178.3020      .0096      .3138     2.5820     3.3990    88.9282   156.9760     2.9044     4.5613     6.1914
 2178.4544      .0108      .3136     2.5811     3.4553    88.7169   155.4118     2.8907     4.5158     6.1918
 2178.6068      .0114      .3126     2.5780     4.1645    88.4428   155.7314     2.8924     4.4108     6.1945
 2178.7592      .0126      .3077     2.5798     3.8705    88.4894   156.7927     2.9282     4.3068     6.1918
 2178.9116      .0124      .3001     2.5838     3.9109    88.5877   159.1623     2.9955     4.2158     6.1970
 2179.0640      .0118      .3062     2.5823     3.1849    88.2923   159.4816     3.0441     4.1951     6.2351
 2179.2164      .0120      .3179     2.5815     3.5185    88.1555   159.1542     3.0575     4.2774     6.2010
 2179.3688      .0117      .3294     2.5777     3.9808    87.0212   160.3405     3.0610     4.4173     6.1980
 2179.5212      .0113      .3199     2.5946     4.0721    86.8006   163.2181     3.0634     4.5399     6.1922
 2179.6736      .0109      .3092     2.6170     3.9655    87.4242   162.8429     3.0690     4.5860     6.1914
 2179.8260      .0157      .2950     2.6462     4.2125    87.3351   159.0345     3.0577     4.4300     6.1914
 2179.9784      .0147      .3002     2.6369     3.6713    88.4750   154.7150     3.0458     4.2853     6.1914
 2180.1308      .0171      .3138     2.6031     2.7566    89.4136   152.2075     3.0467     4.3219     6.1918
 2180.2832      .0181      .3198     2.5804     3.8251    89.4468   153.0318     3.0556     4.2423     6.1945
 2180.4356      .0187      .3260     2.5709     3.0903    89.4428   151.9229     3.0888     4.2200     6.1854
 2180.5880      .0128      .3399     2.5772     1.8953    86.2020   144.5120     3.1748     4.2009     6.1249
 2180.7404      .0057      .3381     2.6412     3.4680    78.8468   122.8529     3.1968     4.4019     6.0386
 2180.8928      .0112      .3073     2.7874     3.6049    74.9468   103.3148     3.1308     5.5979     6.0465
 2181.0452      .0398      .2712     2.9447     4.1762    75.0625   103.7932     3.1000     7.4457     6.1443
 2181.1976      .0220      .2657     2.8523    33.8176    77.8269   125.8750     3.0876     7.2283     6.1874
 2181.3500      .0050      .2828     2.6973    15.1617    84.5577   149.3846     3.0541     5.1033     6.1914
 2181.5024      .0074      .2929     2.6101     4.2411    88.1060   159.9120     2.9251     4.2123     6.1914
 2181.6548      .0094      .3019     2.5940     3.7110    87.9947   158.5024     2.7085     4.1562     6.1946
 2181.8072      .0078      .3077     2.5921     3.4181    88.3072   152.9653     2.6133     4.0823     6.2162
 2181.9596      .0072      .3093     2.5985     3.4274    88.1875   150.8269     2.6351     3.6684     6.1946
 2182.1120      .0091      .3036     2.6016     3.7169    87.6635   153.1580     2.6706     3.4926     6.1914
 2182.2644      .0102      .2972     2.6066     3.6199    87.8644   159.9177     2.7219     3.6163     6.1914
 2182.4168      .0121      .3012     2.5997     4.4428    87.8191   161.3297     2.7975     3.8591     6.1807
 2182.5692      .0133      .3188     2.5982     4.4771    84.5810   153.7220     2.8437     4.2917     6.0908
 2182.7216      .0070      .3173     2.6426     4.0543    78.5370   133.4832     2.8660     5.5968     6.0334
 2182.8740      .0131      .2979     2.7744     4.3251    74.9441   114.3029     2.9235     7.1539     6.0362
 2183.0264      .0424      .2697     2.9267    14.0514    73.7959   111.5224     2.9839     7.0544     6.1125
 2183.1788      .0290      .2723     2.8517    12.0765    75.3127   124.6178     3.0301     5.4706     6.1833
 2183.3312      .0041      .2842     2.6993     5.6555    82.0734   143.0004     3.0618     4.5883     6.1934
 2183.4836      .0056      .3006     2.6143     4.8426    87.7234   153.3620     3.0671     4.2326     6.2242
 2183.6360      .0128      .3045     2.6057     4.4634    88.6636   159.6178     2.9399     4.2572     6.3430
 2183.7884      .0116      .3145     2.6039     4.6832    88.4343   162.3401     2.7533     4.2703     6.3532
 2183.9408      .0094      .3180     2.6070     4.1231    88.0532   163.5957     2.6996     4.2819     6.3586
 2184.0932      .0083      .3160     2.6063     4.0162    88.0572   162.3137     2.6966     4.2711     6.3594
 2184.2456      .0072      .3132     2.6011     4.7665    87.9149   159.2340     2.7057     4.2431     6.3594
 2184.3980      .0070      .3050     2.5949     5.0510    87.6383   157.4734     2.7164     4.2604     6.3594
 2184.5504      .0095      .3060     2.6011     4.7184    88.0625   158.7370     2.7208     4.2588     6.3594
 2184.7028      .0092      .3032     2.6023     4.6368    87.8949   163.1304     2.7096     4.2900     6.3594
 2184.8552      .0077      .3025     2.6001     4.2859    87.0505   165.4681     2.7170     4.3692     6.3602
 2185.0076      .0073      .3000     2.5959     3.2197    86.0771   165.7632     2.7424     4.3382     6.3708
 2185.1600      .0048      .2928     2.5933     3.9741    85.8320   163.9910     2.7601     4.2620     6.4029
 2185.3124      .0044      .2963     2.5935     3.8335    85.7540   162.7047     2.7736     4.3060     6.3893
 2185.4648      .0097      .2970     2.5858     3.7892    86.3019   159.2791     2.7814     4.2937     6.4083
 2185.6172      .0136      .3006     2.5845     4.3627    86.6157   154.2073     2.7847     4.2933     6.3654
 2185.7696      .0146      .2998     2.5789     3.8465    86.6197   150.7366     2.8036     4.3455     6.3594
 2185.9220      .0204      .2977     2.5908     3.4011    86.6202   148.1635     2.8143     4.3933     6.3598
 2186.0744      .0253      .2971     2.6028     4.3097    86.0245   145.8970     2.8220     4.4899     6.3633
 2186.2268      .0161      .3025     2.6027     4.6068    85.7779   144.1304     2.8314     4.5578     6.3672
 2186.3792      .0127      .3059     2.6025     2.9481    86.4601   147.6172     2.8706     4.4745     6.3719
 2186.5316      .0088      .3057     2.5953     2.9030    87.0481   151.9231     2.9305     4.2699     6.3800
 2186.6840      .0056      .2997     2.5893     4.0181    86.7410   150.3520     2.9979     4.1283     6.3680
 2186.8364      .0056      .3005     2.5992     3.6020    85.9335   141.4359     3.0336     4.2729     6.3602
 2186.9888      .0068      .2995     2.6136     3.5684    85.5292   134.5849     3.0367     4.6016     6.3594
 2187.1412      .0084      .2994     2.6310     3.8283    85.2788   132.8942     3.0193     4.8724     6.3594
 2187.2936      .0078      .2967     2.6181     3.6469    85.4615   134.9808     3.0010     4.7959     6.3594
 2187.4460      .0071      .3003     2.6035     3.8037    86.7692   135.9519     2.9871     4.5000     6.3594
 2187.5984      .0043      .3021     2.5843     4.2432    87.7840   138.5470     2.9530     4.2648     6.3594
 2187.7508      .0033      .2979     2.5904     3.9382    87.3178   140.9655     2.8690     4.1477     6.3594
 2187.9032      .0026      .2952     2.5972     3.8802    87.2933   144.2788     2.7992     3.9416     6.3594
 2188.0556      .0046      .2925     2.6098     4.3016    87.5385   143.9615     2.7576     3.7425     6.3594
 2188.2080      .0041      .2905     2.6168     4.6077    87.5000   142.2760     2.7286     3.5974     6.3594
 2188.3604      .0012      .2911     2.6133     3.6373    87.5239   145.0771     2.7063     3.6968     6.3594
 2188.5128      .0005      .2914     2.6059     3.9536    87.5865   146.6827     2.6789     3.9908     6.3594
 2188.6652      .0006      .2951     2.5941     4.3522    87.7450   148.0310     2.6660     4.3170     6.3594
 2188.8176     -.0017      .2937     2.5867     4.2944    88.1290   142.8109     2.6908     4.3357     6.3594
