~VERSION INFORMATION
VERS.                                                 2.0:   CWLS Log ASCII Standard-VERSION 2.0
WRAP.                                                  NO:   One line per depth step
~Well Information Block
STRT.M                                           342.1868:   Top Depth
STOP.M                                          2635.3496:   Bottom Depth
STEP.M                                             .15240:   Depth Increment
NULL.                                            -999.250:   Null Value
FLD .                                              A NAME:   Field Name
WELL.                                             WELL A:   NAME
WBN .                                             WELL A:   WELLBORE
NATI.                                                 NOR:   COUNTRY
CTRY.                                                 NOR:   COUNTRY
COMP.                               	     COMPANY NAME:   OPERATOR
PROV.                                           SOMEWHERE:   PROVINCE
COUN.                                                 RIG:   RIG NAME
SPUD.                                          1970/01/01:   SPUD DATE
LATI.                                       00 00 00.00 N:   SURF. LATITUDE
LONG.                                       00 00 00.00 E:   SURF. LONGITUDE
PBWE.                                              WELL A:   PB WELL ID
PBWB.                                              WELL A:   PB WELLBORE ID
PBWS.                                                 all:   PB WELL NAME SET
~PARAMETER INFORMATION (log)
LNAM.                                           COMPOSITE:   NAME
LTYP.                                         DEPTH MATCH:   LOG TYPE
LSRV.                                              HYBRID:   LOG SERVICE
LSOU.                                                  OD:   LOG SOURCE
LVSN.                                                   1:   LOG VERSION
BHIS.                                                   R:   BRIEF HISTORY
FHIS.                                             RAW-LIS:   FULL HISTORY
LCNM.                                                EXLO:   LOGGING CONTRACTOR
TOOL.                             DIL/BHC/GR (COMPOSITED):   TOOL STRING
QCRM.                                           HQLD data:   QC COMMENT
QCCD.                                                high:   QC LEVEL
QCCO.                                               SIMON:   QC COMPANY
QCST.                                               final:   QC STATUS
~Curve Information Block
#MNEM.UNIT                                        API CODE    No Description
#=========                                        ========    == ===========
DEPT.M                                       00 001 00 00:     1  DEPTH
HDRHO.G/CC                                               :     2  Nuclear Radiation
HNPHI.FRAC                                               :     3  Nuclear Radiation
HRHOB.G/CC                                               :     4  Nuclear Radiation
HRS.OHMM                                                 :     5  Electromagnetic Response
HDT.US/F                                                 :     6  Acoustic Response
HGR.GAPI                                                 :     7  Nuclear Radiation
HRD.OHMM                                                 :     8  Electromagnetic Response
HRM.OHMM                                                 :     9  Electromagnetic Response
HCALI.IN                                                 :    10  Formation Evaluation
~ASCII
# ...
 1421.3312     -.0053      .2416     2.3170  -999.2500   104.8750    56.8125     1.8139     1.9980    12.1562
 1421.4836     -.0041      .2403     2.3136  -999.2500   105.3750    60.7500     1.8176     2.0475    12.1562
 1421.6360     -.0040      .2563     2.3182  -999.2500   105.9375    57.5313     1.8298     2.1175    12.1562
 1421.7884     -.0050      .2642     2.3225  -999.2500   105.9375    52.5313     1.8362     2.1676    12.1562
 1421.9408     -.0040      .2756     2.3384  -999.2500   105.8125    49.1563     1.8540     2.1772    12.1562
 1422.0932     -.0040      .2760     2.3424  -999.2500   105.8125    56.2500     1.8518     2.1450    12.1562
 1422.2456     -.0037      .2829     2.3403  -999.2500   106.3750    54.5312     1.9005     2.1100    12.1562
 1422.3980     -.0041      .2789     2.3354  -999.2500   105.7500    58.9062     1.8783     2.0877    12.1562
 1422.5504     -.0023      .2770     2.3404  -999.2500   105.9375    51.7187     1.8695     2.1040    12.1562
 1422.7028     -.0019      .2677     2.3354  -999.2500   106.1250    49.8125     1.8622     2.1473    12.1562
 1422.8552     -.0054      .2662     2.3246  -999.2500   105.6250    47.0625     1.8516     2.1676    12.1562
 1423.0076     -.0066      .2608     2.3112  -999.2500   106.1250    55.1875     1.8479     2.1566    12.1562
 1423.1600     -.0090      .2668     2.3045  -999.2500   105.8750    58.3125     1.8508     2.1265    12.1562
 1423.3124     -.0105      .2789     2.3041  -999.2500   105.5625    57.0625     1.8483     2.0863    12.1562
 1423.4648     -.0103      .2862     2.3081  -999.2500   105.3125    54.6562     1.8434     2.1077    12.1562
 1423.6172     -.0097      .2768     2.3121  -999.2500   105.2500    53.3750     1.8336     2.1265    12.1562
 1423.7696     -.0119      .2669     2.3110  -999.2500   105.6875    57.3437     1.8276     2.1190    12.1562
 1423.9220     -.0091      .2634     2.3161  -999.2500   105.2500    57.6250     1.8213     2.0761    12.1562
 1424.0744     -.0051      .2673     2.3313  -999.2500   105.5000    55.8438     1.8249     2.0510    12.1562
 1424.2268     -.0056      .2714     2.3333  -999.2500   104.5000    54.0312     1.8309     2.0631    12.1562
 1424.3792     -.0068      .2617     2.3341  -999.2500   104.3125    54.7813     1.8395     2.1010    12.1562
 1424.5316     -.0074      .2494     2.3340  -999.2500   104.5000    58.7813     1.8510     2.1403    12.1562
 1424.6840     -.0112      .2412     2.3296  -999.2500   105.0625    57.3750     1.8635     2.1488    12.1562
 1424.8364     -.0164      .2450     2.3211  -999.2500   105.3125    56.5312     1.8796     2.1512    12.1562
 1424.9888     -.0184      .2488     2.3147  -999.2500   105.0625    58.7187     1.8864     2.1543    12.1562
 1425.1412     -.0178      .2545     2.3135  -999.2500   105.5000    61.9063     1.8903     2.1535    12.1562
 1425.2936     -.0143      .2679     2.3186  -999.2500   105.5000    58.6875     1.8896     2.1504    12.1562
 1425.4460     -.0122      .2833     2.3101  -999.2500   105.6875    53.0625     1.8831     2.1380    12.1562
 1425.5984     -.0091      .2893     2.3039  -999.2500   105.6875    48.2812     1.8805     2.1160    12.1562
 1425.7508     -.0056      .2848     2.2995  -999.2500   105.5625    48.8438     1.8773     2.0936    12.1562
 1425.9032     -.0033      .2827     2.3054  -999.2500   106.1250    56.5625     1.8728     2.0929    12.1562
 1426.0556     -.0041      .2754     2.3129  -999.2500   106.0000    61.2813     1.8623     2.1258    12.1562
 1426.2080     -.0051      .2710     2.3190  -999.2500   105.8125    58.8438     1.8471     2.1481    12.1562
 1426.3604     -.0034      .2569     2.3207  -999.2500   105.8750    56.6875     1.8461     2.1450    12.1562
 1426.5128     -.0062      .2696     2.3182  -999.2500   105.7500    55.3125     1.8489     2.1258    12.1562
 1426.6652     -.0070      .2872     2.3189  -999.2500   105.9375    58.4375     1.8519     2.0929    12.1562
 1426.8176     -.0075      .2946     2.3227  -999.2500   106.3750    55.9688     1.8511     2.0870    12.1562
 1426.9700     -.0076      .2710     2.3284  -999.2500   106.0625    54.3750     1.8501     2.1077    12.1562
 1427.1224     -.0126      .2392     2.3215  -999.2500   106.2500    56.2500     1.8434     2.1342    12.1562
 1427.2748     -.0140      .2372     2.3213  -999.2500   105.8125    54.3750     1.8516     2.1450    12.1562
 1427.4272     -.0149      .2532     2.3211  -999.2500   105.7500    54.8750     1.8663     2.1273    12.1562
 1427.5796     -.0161      .2808     2.3274  -999.2500   106.1875    53.9062     1.8710     2.1296    12.1562
 1427.7320     -.0157      .2822     2.3285  -999.2500   105.8750    56.0937     1.8772     2.1457    12.1562
 1427.8844     -.0155      .2775     2.3220  -999.2500   105.7500    54.1875     1.8808     2.1613    12.1562
 1428.0368     -.0142      .2683     2.3133  -999.2500   105.3125    55.4375     1.8880     2.1724    12.1562
 1428.1892     -.0164      .2755     2.3064  -999.2500   105.1875    58.7187     1.8947     2.1748    12.1562
 1428.3416     -.0133      .2765     2.3107  -999.2500   105.6875    60.4375     1.9006     2.1779    12.1562
 1428.4940     -.0122      .2742     2.3183  -999.2500   105.7500    60.0938     1.9069     2.1860    12.1562
 1428.6464     -.0123      .2657     2.3241  -999.2500   106.8750    54.2187     1.9098     2.1916    12.1562
 1428.7988     -.0129      .2581     2.3318  -999.2500   106.6250    55.2812     1.9122     2.2144    12.1562
 1428.9512     -.0106      .2616     2.3355  -999.2500   106.1875    55.8750     1.9074     2.2319    12.1562
 1429.1036     -.0131      .2618     2.3319  -999.2500   106.5000    56.3125     1.9018     2.2352    12.1562
 1429.2560     -.0151      .2668     2.3203  -999.2500   105.9375    57.0625     1.8911     2.1908    12.1562
 1429.4084     -.0131      .2596     2.3152  -999.2500   105.8750    56.4062     1.8837     2.1504    12.1562
 1429.5608     -.0127      .2715     2.3095  -999.2500   106.1875    56.3750     1.8744     2.1220    12.1562
 1429.7132     -.0108      .2706     2.3120  -999.2500   106.2500    56.5000     1.8645     2.1160    12.1562
 1429.8656     -.0103      .2689     2.3123  -999.2500   106.3750    52.9687     1.8510     2.1115    12.1562
 1430.0180     -.0087      .2459     2.3163  -999.2500   106.7500    52.2813     1.8371     2.1175    12.1562
 1430.1704     -.0089      .2470     2.3121  -999.2500   106.5000    53.8438     1.8291     2.1182    12.1562
 1430.3228     -.0074      .2490     2.3149  -999.2500   106.5000    54.8437     1.8235     2.1160    12.1562
 1430.4752     -.0067      .2664     2.3190  -999.2500   106.2500    58.3125     1.8091     2.1092    12.1562
 1430.6276     -.0038      .2815     2.3236  -999.2500   106.3125    54.9687     1.8044     2.0936    12.1562
 1430.7800     -.0050      .2931     2.3201  -999.2500   106.3125    54.9375     1.7931     2.0688    12.1562
 1430.9324     -.0058      .2962     2.3177  -999.2500   106.9375    58.3125     1.7859     2.0440    12.1562
 1431.0848     -.0058      .2901     2.3217  -999.2500   107.0625    58.1563     1.7790     2.0328    12.1562
 1431.2372     -.0076      .2773     2.3201  -999.2500   107.2500    58.8438     1.7685     2.0377    12.1562
 1431.3896     -.0108      .2757     2.3141  -999.2500   107.3750    51.6563     1.7634     2.0377    12.1562
 1431.5420     -.0112      .2738     2.3086  -999.2500   107.1250    53.3438     1.7587     2.0307    12.1562
 1431.6944     -.0125      .2835     2.3063  -999.2500   107.0000    52.1875     1.7594     2.0210    12.1562
 1431.8468     -.0130      .2813     2.3047  -999.2500   106.3125    55.5937     1.7617     2.0190    12.1562
 1431.9992     -.0125      .2870     2.3103  -999.2500   106.1875    53.5000     1.7654     2.0293    12.1562
 1432.1516     -.0088      .2900     2.3149  -999.2500   106.0625    61.0625     1.7695     2.0440    12.1562
 1432.3040     -.0096      .2856     2.3148  -999.2500   105.8125    60.1562     1.7707     2.0653    12.1562
