#----------------------------------------------------------------------------
~VERSION INFORMATION
VERS.            2.0                  :CWLS LOG ASCII STANDARD -VERSION 2.0
WRAP.            NO                   :ONE LINE PER DEPTH STEP
#
# Created by marten, at DESKTOP-7JFC02N, on 2020-03-17T21:40:57.014521, using version XXX
# NOTE: Some notes for well A
# Written to las on: 2020-03-17T21:52:46.162651
# Modified on: 2020-03-17T21:40:57.273821
#  Modification: sw: None, Test data generated from VCL
#--------------------------------------------------------------------
~WELL INFORMATION
#MNEM .UNIT      DATA                 :DESCRIPTION OF MNEMONIC
#----------      ------------         -------------------------------
STRT   .m        295.0                :START DEPTH
STOP   .m        2636.1688            :STOP DEPTH
STEP   .m        0.1524               :STEP DEPTH
WELL   .         Well_F               :WELL
NULL   .         -999.25              :NULL VALUE
COMP   .                              :COMPANY
WELL   .         Well_F               :WELL
LOC    .         Norway               :LOCATION - AREA
FLD    .                              :FIELD
CTRY   .         nor                  :COUNTRY
DATE   .                              :WELL DATE
XWELL  .m        0                    :X POS
YWELL  .m        0                    :Y POS
EDF    .         24.0                 :DERRICK FLOOR ELEVATION
#
# ----------------------------------------------------------------------------
~CURVE INFORMATION
# MNEM.UNIT                                         : CURVE DESCRIPTION
# ----------                                        -------------------------------
DEPTH               .m                                : 1        DEPTH
VP_DRY              .m/s                              : 2        Vp
VP_SG08             .m/s                              : 3        Vp
VP_SO08             .m/s                              : 4        Vp
VS_DRY              .m/s                              : 5        Vs
VS_SG08             .m/s                              : 6        Vs
VS_SO08             .m/s                              : 7        Vs
RHO_DRY             .g/cm3                            : 8        Rho
RHO_SG08            .g/cm3                            : 9        Rho
RHO_SO08            .g/cm3                            : 10       Rho
PHIE                .fract                            : 11       Por
VCL                 .fract                            : 12       Volume
SW                  .fract                            : 13       Fake water saturation
#
# ----------------------------------------------------------------------------
~A                  VP_DRY              VP_SG08             VP_SO08             VS_DRY              VS_SG08             VS_SO08             RHO_DRY             RHO_SG08            RHO_SO08            PHIE                VCL                 SW                  
# ...
1877.674            3689.5098           3689.5098           3689.5098           1978.6649           1978.6649           1978.6649           2.5422              2.5422              2.5422              0.0001              0.9298              1.0                 
1877.8264           3675.9881           3675.9881           3675.9881           1973.9576           1973.9576           1973.9576           2.5445              2.5445              2.5445              0.0001              0.8985              1.0                 
1877.9788           3655.6253           3655.6253           3655.6253           1970.3743           1970.3743           1970.3743           2.5342              2.5342              2.5342              0.0034              0.9193              1.0                 
1878.1312           3634.5327           3634.5327           3634.5327           1965.5807           1965.5807           1965.5807           2.5246              2.5246              2.5246              0.0092              0.9658              1.0                 
1878.2836           3627.8631           3627.8631           3627.8631           1948.7356           1948.7356           1948.7356           2.5277              2.5277              2.5277              0.0024              0.9032              1.0                 
1878.436            3667.4107           3667.4107           3667.4107           1976.9596           1976.9596           1976.9596           2.5409              2.5409              2.5409              0.0001              0.83                1.0                 
1878.5884           3763.9778           3763.9778           3763.9778           2059.874            2059.874            2059.874            2.5542              2.5542              2.5542              0.0001              0.798               0.998               
1878.7408           3858.6837           3858.6837           3858.6837           2148.7692           2148.7692           2148.7692           2.5734              2.5734              2.5734              0.0001              0.7759              0.9759              
1878.8932           3968.0413           3968.0413           3968.0413           2246.282            2246.282            2246.282            2.6048              2.6048              2.6048              0.0001              0.6802              0.8802000000000001  
1879.0456           4194.05             4194.0599           4194.0421           2429.1722           2429.2036           2429.1796           2.6311              2.631               2.6311              0.0001              0.4287              0.6287              
1879.198            4549.9083           4549.9232           4549.9021           2711.9043           2711.9392           2711.9125           2.6413              2.6412              2.6413              0.0001              0.4364              0.6364000000000001  
1879.3504           4822.6125           4822.632            4822.6078           2931.5628           2931.6006           2931.5717           2.6376              2.6375              2.6376              0.0001              0.4143              0.6143000000000001  
1879.5028           4888.3521           4888.3733           4888.3479           2991.5002           2991.539            2991.5094           2.6203              2.6202              2.6203              0.0001              0.4015              0.6015              
1879.6552           4857.1112           4858.7695           4856.8004           2977.0062           2980.0233           2977.7153           2.5789              2.5737              2.5777              0.0077              0.4425              0.6425000000000001  
1879.8076           4711.4965           4722.5999           4710.2849           2873.7081           2891.0129           2877.7519           2.5309              2.5007              2.5238              0.0444              0.378               0.5780000000000001  
1879.96             4548.3607           4564.446            4547.4159           2755.4876           2776.6046           2760.413            2.5197              2.4815              2.5107              0.0561              0.1708              0.3708              
1880.1124           4431.6667           4405.2733           4415.873            2666.3014           2678.0681           2669.0561           2.5597              2.5372              2.5544              0.033               0.1858              0.38580000000000003 
1880.2648           4378.5344           4378.9405           4378.3545           2620.69             2621.6478           2620.9153           2.6119              2.61                2.6114              0.0028              0.4095              0.6094999999999999  
1880.4172           4327.6032           4327.6032           4327.6032           2570.9937           2570.9937           2570.9937           2.6218              2.6218              2.6218              0.0001              0.5337              0.7337              
1880.5696           4167.5794           4167.5794           4167.5794           2435.6592           2435.6592           2435.6592           2.5861              2.5861              2.5861              0.0052              0.5818              0.7818              
1880.722            3906.097            3906.097            3906.097            2224.6629           2224.6629           2224.6629           2.5202              2.5202              2.5202              0.0406              0.6051              0.8050999999999999  
1880.8744           3709.177            3709.177            3709.177            2069.1028           2069.1028           2069.1028           2.4536              2.4536              2.4536              0.085               0.5947              0.7947              
1881.0268           3644.8823           3659.7713           3638.4256           2016.0573           2046.4698           2023.0911           2.4295              2.3578              2.4126              0.1054              0.3806              0.5806              
1881.1792           3801.5655           3536.2031           3679.8611           2098.6134           2129.3257           2105.7201           2.4488              2.3786              2.4323              0.1031              0.0417              0.24170000000000003 
1881.3316           3951.8649           3774.2492           3870.4633           2293.6568           2318.3895           2299.405            2.4925              2.4396              2.48                0.0778              0.1477              0.3477              
1881.484            4089.071            4072.8021           4074.9882           2408.0526           2425.4741           2412.118            2.5365              2.5002              2.5279              0.0534              0.2737              0.4737              
1881.6364           4094.2703           4099.4445           4091.923            2404.5036           2416.5119           2407.313            2.5551              2.5298              2.5491              0.0373              0.4418              0.6418              
1881.7888           4016.7046           4016.7046           4016.7046           2324.0202           2324.0202           2324.0202           2.5539              2.5539              2.5539              0.0282              0.5701              0.7701              
1881.9412           3929.7025           3929.7025           3929.7025           2238.1442           2238.1442           2238.1442           2.5466              2.5466              2.5466              0.023               0.6436              0.8435999999999999  
1882.0936           3884.6603           3884.6603           3884.6603           2194.2493           2194.2493           2194.2493           2.5443              2.5443              2.5443              0.019               0.7132              0.9132              
1882.246            3881.2124           3881.2124           3881.2124           2190.2391           2190.2391           2190.2391           2.5486              2.5486              2.5486              0.0154              0.7041              0.9040999999999999  
