#----------------------------------------------------------------------------
~VERSION INFORMATION
VERS.            2.0                  :CWLS LOG ASCII STANDARD -VERSION 2.0
WRAP.            NO                   :ONE LINE PER DEPTH STEP
#
# Created by marten, at DESKTOP-7JFC02N, on 2020-03-17T21:40:57.014521, using version XXX
# NOTE: Some notes for well A
# Written to las on: 2020-03-17T21:52:46.162651
# Modified on: 2020-03-17T21:40:57.273821
#  Modification: sw: None, Test data generated from VCL
#--------------------------------------------------------------------
~WELL INFORMATION
#MNEM .UNIT      DATA                 :DESCRIPTION OF MNEMONIC
#----------      ------------         -------------------------------
STRT   .m        295.0                :START DEPTH
STOP   .m        2636.1688            :STOP DEPTH
STEP   .m        0.1524               :STEP DEPTH
WELL   .         Well_F               :WELL
NULL   .         -999.25              :NULL VALUE
COMP   .                              :COMPANY
WELL   .         Well_F               :WELL
LOC    .         Norway               :LOCATION - AREA
FLD    .                              :FIELD
CTRY   .         nor                  :COUNTRY
DATE   .                              :WELL DATE
XWELL  .m        0                    :X POS
YWELL  .m        0                    :Y POS
EDF    .         24.0                 :DERRICK FLOOR ELEVATION
#
# ----------------------------------------------------------------------------
~CURVE INFORMATION
# MNEM.UNIT                                         : CURVE DESCRIPTION
# ----------                                        -------------------------------
DEPTH               .m                                : 1        DEPTH
VP_DRY              .m/s                              : 2        Vp
VP_SG08             .m/s                              : 3        Vp
VP_SO08             .m/s                              : 4        Vp
VS_DRY              .m/s                              : 5        Vs
VS_SG08             .m/s                              : 6        Vs
VS_SO08             .m/s                              : 7        Vs
RHO_DRY             .g/cm3                            : 8        Rho
RHO_SG08            .g/cm3                            : 9        Rho
RHO_SO08            .g/cm3                            : 10       Rho
PHIE                .fract                            : 11       Por
VCL                 .fract                            : 12       Volume
SW                  .fract                            : 13       Fake water saturation
#
# ----------------------------------------------------------------------------
~A                  VP_DRY              VP_SG08             VP_SO08             VS_DRY              VS_SG08             VS_SO08             RHO_DRY             RHO_SG08            RHO_SO08            PHIE                VCL                 SW                  
# ...
2477.6728           4481.7275           4481.7275           4481.7275           2607.0674           2607.0674           2607.0674           2.5291              2.5291              2.5291              0.0001              0.5361              0.7361              
2477.8252           4547.8916           4547.9071           4547.8852           2662.3565           2662.3922           2662.3649           2.5363              2.5362              2.5363              0.0001              0.4383              0.6383000000000001  
2477.9776           4741.2564           4741.2764           4741.2516           2832.0924           2832.1298           2832.1012           2.5797              2.5796              2.5797              0.0001              0.3418              0.5418000000000001  
2478.13             5024.1161           5024.1396           5024.1127           3078.1475           3078.1871           3078.1568           2.6428              2.6427              2.6427              0.0001              0.3378              0.5378000000000001  
2478.2824           5214.6248           5214.6526           5214.6228           3248.3217           3248.3628           3248.3314           2.6843              2.6842              2.6843              0.0001              0.2268              0.4268              
2478.4348           5246.1635           5246.1942           5246.1623           3281.7619           3281.8036           3281.7717           2.6785              2.6784              2.6785              0.0001              0.1231              0.3231              
2478.5872           5084.8442           5084.8726           5084.8421           3151.6848           3151.7254           3151.6943           2.6411              2.641               2.6411              0.0001              0.1607              0.3607              
2478.7396           4820.2547           4820.2754           4820.2502           2920.4235           2920.4617           2920.4325           2.6034              2.6034              2.6034              0.0001              0.3705              0.5705              
2478.892            4663.3188           4663.3188           4663.3188           2769.0347           2769.0347           2769.0347           2.578               2.578               2.578               0.0001              0.6026              0.8026              
2479.0444           4636.7525           4636.7525           4636.7525           2730.9881           2730.9881           2730.9881           2.5689              2.5689              2.5689              0.0001              0.5881              0.7881              
2479.1968           4631.9398           4631.9398           4631.9398           2722.0778           2722.0778           2722.0778           2.559               2.559               2.559               0.0001              0.5345              0.7344999999999999  
2479.3492           4610.7836           4610.7836           4610.7836           2703.9855           2703.9855           2703.9855           2.5513              2.5513              2.5513              0.0001              0.5152              0.7152000000000001  
2479.5016           4626.252            4626.2676           4626.2458           2715.3099           2715.346            2715.3184           2.5551              2.555               2.5551              0.0001              0.4703              0.6703              
2479.654            4715.9567           4715.9743           4715.9512           2789.6362           2789.6728           2789.6448           2.5896              2.5895              2.5895              0.0001              0.4157              0.6157              
2479.8064           4810.9084           4810.9084           4810.9084           2875.0779           2875.0779           2875.0779           2.6592              2.6592              2.6592              0.0001              0.5571              0.7571000000000001  
2479.9588           4846.149            4846.149            4846.149            2914.3167           2914.3167           2914.3167           2.7284              2.7284              2.7284              0.0001              0.5925              0.7925              
2480.1112           4805.0645           4805.0645           4805.0645           2886.0048           2886.0048           2886.0048           2.7344              2.7344              2.7344              0.0001              0.594               0.794               
2480.2636           4714.9679           4714.9679           4714.9679           2811.9337           2811.9337           2811.9337           2.6727              2.6727              2.6727              0.0001              0.6321              0.8321000000000001  
2480.416            4669.5611           4669.5611           4669.5611           2774.9461           2774.9461           2774.9461           2.6147              2.6147              2.6147              0.0001              0.6481              0.8481000000000001  
2480.5684           4689.3117           4689.3117           4689.3117           2790.8143           2790.8143           2790.8143           2.5828              2.5828              2.5828              0.0001              0.6395              0.8394999999999999  
2480.7208           4705.0034           4705.0034           4705.0034           2803.9058           2803.9058           2803.9058           2.5835              2.5835              2.5835              0.0001              0.5553              0.7553000000000001  
2480.8732           4699.367            4699.367            4699.367            2795.9969           2795.9969           2795.9969           2.5855              2.5855              2.5855              0.0001              0.5713              0.7713000000000001  
2481.0256           4715.2946           4715.2946           4715.2946           2800.1656           2800.1656           2800.1656           2.5797              2.5797              2.5797              0.0001              0.5529              0.7528999999999999  
2481.178            4777.5194           4777.5371           4777.514            2842.3503           2842.3879           2842.3592           2.5707              2.5706              2.5707              0.0001              0.4798              0.6798              
2481.3304           4856.6961           4856.7178           4856.6917           2902.0149           2902.0533           2902.0239           2.5702              2.5701              2.5702              0.0001              0.3268              0.5267999999999999  
2481.4828           4886.2049           4886.2268           4886.2007           2928.6825           2928.7209           2928.6916           2.5926              2.5925              2.5926              0.0001              0.3256              0.5256000000000001  
2481.6352           4793.7984           4793.8155           4793.793            2856.5853           2856.6223           2856.594            2.623               2.6229              2.623               0.0001              0.486               0.6859999999999999  
2481.7876           4624.6098           4624.6098           4624.6098           2717.7097           2717.7097           2717.7097           2.6408              2.6408              2.6408              0.0001              0.8082              1.0                 
2481.94             4426.1615           4426.1615           4426.1615           2550.9753           2550.9753           2550.9753           2.6205              2.6205              2.6205              0.0001              0.9856              1.0                 
2482.0924           4279.0544           4279.0544           4279.0544           2427.4576           2427.4576           2427.4576           2.5947              2.5947              2.5947              0.0001              1.0                 1.0                 
2482.2448           4211.3479           4211.3479           4211.3479           2374.0824           2374.0824           2374.0824           2.5891              2.5891              2.5891              0.0001              1.0                 1.0                 
