#----------------------------------------------------------------------------
~VERSION INFORMATION
VERS.            2.0                  :CWLS LOG ASCII STANDARD -VERSION 2.0
WRAP.            NO                   :ONE LINE PER DEPTH STEP
#
# Created by marten, at DESKTOP-7JFC02N, on 2020-03-17T21:40:57.014521, using version XXX
# NOTE: Some notes for well A
# Written to las on: 2020-03-17T21:52:46.162651
# Modified on: 2020-03-17T21:40:57.273821
#  Modification: sw: None, Test data generated from VCL
#--------------------------------------------------------------------
~WELL INFORMATION
#MNEM .UNIT      DATA                 :DESCRIPTION OF MNEMONIC
#----------      ------------         -------------------------------
STRT   .m        295.0                :START DEPTH
STOP   .m        2636.1688            :STOP DEPTH
STEP   .m        0.1524               :STEP DEPTH
WELL   .         Well_F               :WELL
NULL   .         -999.25              :NULL VALUE
COMP   .                              :COMPANY
WELL   .         Well_F               :WELL
LOC    .         Norway               :LOCATION - AREA
FLD    .                              :FIELD
CTRY   .         nor                  :COUNTRY
DATE   .                              :WELL DATE
XWELL  .m        0                    :X POS
YWELL  .m        0                    :Y POS
EDF    .         24.0                 :DERRICK FLOOR ELEVATION
#
# ----------------------------------------------------------------------------
~CURVE INFORMATION
# MNEM.UNIT                                         : CURVE DESCRIPTION
# ----------                                        -------------------------------
DEPTH               .m                                : 1        DEPTH
VP_DRY              .m/s                              : 2        Vp
VP_SG08             .m/s                              : 3        Vp
VP_SO08             .m/s                              : 4        Vp
VS_DRY              .m/s                              : 5        Vs
VS_SG08             .m/s                              : 6        Vs
VS_SO08             .m/s                              : 7        Vs
RHO_DRY             .g/cm3                            : 8        Rho
RHO_SG08            .g/cm3                            : 9        Rho
RHO_SO08            .g/cm3                            : 10       Rho
PHIE                .fract                            : 11       Por
VCL                 .fract                            : 12       Volume
SW                  .fract                            : 13       Fake water saturation
#
# ----------------------------------------------------------------------------
~A                  VP_DRY              VP_SG08             VP_SO08             VS_DRY              VS_SG08             VS_SO08             RHO_DRY             RHO_SG08            RHO_SO08            PHIE                VCL                 SW                  
# ...
370.5904            1889.3105           1889.3105           1889.3105           663.4279            663.4279            663.4279            1.6473              1.6473              1.6473              -999.25             -999.25             -999.25             
370.7428            1889.3105           1889.3105           1889.3105           663.4279            663.4279            663.4279            1.6473              1.6473              1.6473              -999.25             -999.25             -999.25             
370.8952            1889.3105           1889.3105           1889.3105           663.4279            663.4279            663.4279            1.6474              1.6474              1.6474              -999.25             -999.25             -999.25             
371.0476            1889.3105           1889.3105           1889.3105           663.4279            663.4279            663.4279            1.6476              1.6476              1.6476              -999.25             -999.25             -999.25             
371.2               1892.5097           1892.5097           1892.5097           666.0006            666.0006            666.0006            1.6476              1.6476              1.6476              -999.25             -999.25             -999.25             
371.3524            1894.9626           1894.9626           1894.9626           667.9731            667.9731            667.9731            1.6476              1.6476              1.6476              -999.25             -999.25             -999.25             
371.5048            1894.9626           1894.9626           1894.9626           667.9731            667.9731            667.9731            1.6476              1.6476              1.6476              -999.25             -999.25             -999.25             
371.6572            1894.9626           1894.9626           1894.9626           667.9731            667.9731            667.9731            1.6476              1.6476              1.6476              -999.25             -999.25             -999.25             
371.8096            1894.9626           1894.9626           1894.9626           667.9731            667.9731            667.9731            1.6476              1.6476              1.6476              -999.25             -999.25             -999.25             
371.962             1894.9626           1894.9626           1894.9626           667.9731            667.9731            667.9731            1.6478              1.6478              1.6478              -999.25             -999.25             -999.25             
372.1144            1894.9921           1894.9921           1894.9921           667.9968            667.9968            667.9968            1.6478              1.6478              1.6478              -999.25             -999.25             -999.25             
372.2668            1900.6475           1900.6475           1900.6475           672.5447            672.5447            672.5447            1.6478              1.6478              1.6478              -999.25             -999.25             -999.25             
372.4192            1900.6475           1900.6475           1900.6475           672.5447            672.5447            672.5447            1.6478              1.6478              1.6478              -999.25             -999.25             -999.25             
372.5716            1900.6475           1900.6475           1900.6475           672.5447            672.5447            672.5447            1.6478              1.6478              1.6478              -999.25             -999.25             -999.25             
372.724             1900.6475           1900.6475           1900.6475           672.5447            672.5447            672.5447            1.6478              1.6478              1.6478              -999.25             -999.25             -999.25             
372.8764            1900.6475           1900.6475           1900.6475           672.5447            672.5447            672.5447            1.6479              1.6479              1.6479              -999.25             -999.25             -999.25             
373.0288            1900.6475           1900.6475           1900.6475           672.5447            672.5447            672.5447            1.6481              1.6481              1.6481              -999.25             -999.25             -999.25             
373.1812            1903.1792           1903.1792           1903.1792           674.5806            674.5806            674.5806            1.6481              1.6481              1.6481              -999.25             -999.25             -999.25             
373.3336            1906.3666           1906.3666           1906.3666           677.1438            677.1438            677.1438            1.6481              1.6481              1.6481              -999.25             -999.25             -999.25             
373.486             1906.3666           1906.3666           1906.3666           677.1438            677.1438            677.1438            1.6481              1.6481              1.6481              -999.25             -999.25             -999.25             
373.6384            1906.3666           1906.3666           1906.3666           677.1438            677.1438            677.1438            1.6481              1.6481              1.6481              -999.25             -999.25             -999.25             
373.7908            1906.3666           1906.3666           1906.3666           677.1438            677.1438            677.1438            1.6481              1.6481              1.6481              -999.25             -999.25             -999.25             
373.9432            1906.3666           1906.3666           1906.3666           677.1438            677.1438            677.1438            1.6483              1.6483              1.6483              -999.25             -999.25             -999.25             
374.0956            1906.3666           1906.3666           1906.3666           677.1438            677.1438            677.1438            1.6483              1.6483              1.6483              -999.25             -999.25             -999.25             
374.248             1911.4388           1911.4388           1911.4388           681.2226            681.2226            681.2226            1.6483              1.6483              1.6483              -999.25             -999.25             -999.25             
374.4004            1912.1215           1912.1215           1912.1215           681.7716            681.7716            681.7716            1.6483              1.6483              1.6483              -999.25             -999.25             -999.25             
374.5528            1912.1215           1912.1215           1912.1215           681.7716            681.7716            681.7716            1.6483              1.6483              1.6483              -999.25             -999.25             -999.25             
374.7052            1912.1215           1912.1215           1912.1215           681.7716            681.7716            681.7716            1.6483              1.6483              1.6483              -999.25             -999.25             -999.25             
374.8576            1912.1215           1912.1215           1912.1215           681.7716            681.7716            681.7716            1.6484              1.6484              1.6484              -999.25             -999.25             -999.25             
375.01              1912.1215           1912.1215           1912.1215           681.7716            681.7716            681.7716            1.6485              1.6485              1.6485              -999.25             -999.25             -999.25             
375.1624            1913.9697           1913.9697           1913.9697           683.2579            683.2579            683.2579            1.6485              1.6485              1.6485              -999.25             -999.25             -999.25             
