~VERSION INFORMATION
VERS.                                                 2.0:   CWLS Log ASCII Standard-VERSION 2.0
WRAP.                                                  NO:   One line per depth step
~Well Information Block
STRT.M                                           342.1868:   Top Depth
STOP.M                                          2635.3496:   Bottom Depth
STEP.M                                             .15240:   Depth Increment
NULL.                                            -999.250:   Null Value
FLD .                                              A NAME:   Field Name
WELL.                                             WELL A:   NAME
WBN .                                             WELL A:   WELLBORE
NATI.                                                 NOR:   COUNTRY
CTRY.                                                 NOR:   COUNTRY
COMP.                               	     COMPANY NAME:   OPERATOR
PROV.                                           SOMEWHERE:   PROVINCE
COUN.                                                 RIG:   RIG NAME
SPUD.                                          1970/01/01:   SPUD DATE
LATI.                                       00 00 00.00 N:   SURF. LATITUDE
LONG.                                       00 00 00.00 E:   SURF. LONGITUDE
PBWE.                                              WELL A:   PB WELL ID
PBWB.                                              WELL A:   PB WELLBORE ID
PBWS.                                                 all:   PB WELL NAME SET
~PARAMETER INFORMATION (log)
LNAM.                                           COMPOSITE:   NAME
LTYP.                                         DEPTH MATCH:   LOG TYPE
LSRV.                                              HYBRID:   LOG SERVICE
LSOU.                                                  OD:   LOG SOURCE
LVSN.                                                   1:   LOG VERSION
BHIS.                                                   R:   BRIEF HISTORY
FHIS.                                             RAW-LIS:   FULL HISTORY
LCNM.                                                EXLO:   LOGGING CONTRACTOR
TOOL.                             DIL/BHC/GR (COMPOSITED):   TOOL STRING
QCRM.                                           HQLD data:   QC COMMENT
QCCD.                                                high:   QC LEVEL
QCCO.                                               SIMON:   QC COMPANY
QCST.                                               final:   QC STATUS
~Curve Information Block
#MNEM.UNIT                                        API CODE    No Description
#=========                                        ========    == ===========
DEPT.M                                       00 001 00 00:     1  DEPTH
HDRHO.G/CC                                               :     2  Nuclear Radiation
HNPHI.FRAC                                               :     3  Nuclear Radiation
HRHOB.G/CC                                               :     4  Nuclear Radiation
HRS.OHMM                                                 :     5  Electromagnetic Response
HDT.US/F                                                 :     6  Acoustic Response
HGR.GAPI                                                 :     7  Nuclear Radiation
HRD.OHMM                                                 :     8  Electromagnetic Response
HRM.OHMM                                                 :     9  Electromagnetic Response
HCALI.IN                                                 :    10  Formation Evaluation
~ASCII
# ...
 2322.4724     -.0012      .1251     2.3676     2.1396    74.2832    13.0369      .7768     1.6575     5.1992
 2322.6248      .0003      .1255     2.3674     2.0997    74.5093    12.2404      .7863     1.7030     5.1992
 2322.7772      .0025      .1273     2.3672     2.1271    74.6970    10.5970      .7929     1.6882     5.1992
 2322.9296      .0020      .1278     2.3644     2.0969    74.9322    10.8574      .7965     1.6352     5.1992
 2323.0820      .0019      .1296     2.3617     2.0481    74.9814    11.8851      .7983     1.5830     5.1992
 2323.2344      .0003      .1286     2.3583     1.9899    74.7739    14.2252      .7962     1.5449     5.1992
 2323.3868     -.0001      .1293     2.3612     1.9698    74.9082    15.0554      .7920     1.5327     5.1992
 2323.5392     -.0032      .1322     2.3601     2.0376    75.1582    14.6055      .7884     1.5488     5.1992
 2323.6916     -.0042      .1365     2.3597     2.0525    75.1210    13.9766      .7852     1.5660     5.1992
 2323.8440     -.0061      .1382     2.3599     2.0503    74.8603    14.3097      .7842     1.5899     5.1992
 2323.9964     -.0072      .1367     2.3554     2.1867    74.7229    14.2923      .7883     1.6156     5.1992
 2324.1488     -.0078      .1357     2.3589     2.2822    74.5186    14.1006      .7972     1.6192     5.1992
 2324.3012     -.0061      .1338     2.3607     2.1985    74.8457    12.3780      .8071     1.5879     5.1992
 2324.4536     -.0044      .1333     2.3659     2.2209    75.3830    13.0172      .8130     1.5607     5.1992
 2324.6060     -.0028      .1345     2.3627     2.0544    76.2394    15.0056      .8121     1.5534     5.1992
 2324.7584     -.0023      .1352     2.3615     1.9863    76.6970    17.2105      .8066     1.5579     5.1992
 2324.9108     -.0032      .1362     2.3576     1.9175    76.6449    17.6156      .8012     1.5447     5.1992
 2325.0632     -.0031      .1365     2.3548     1.8345    76.0399    15.6123      .7995     1.5058     5.1992
 2325.2156     -.0031      .1396     2.3571     1.8450    75.1409    13.3819      .7996     1.4713     5.1992
 2325.3680     -.0035      .1394     2.3589     1.8643    74.3225    12.6569      .7999     1.4660     5.1992
 2325.5204     -.0019      .1368     2.3677     1.8464    74.4641    13.8212      .7950     1.4892     5.1992
 2325.6728     -.0018      .1341     2.3656     1.8868    75.8870    14.9629      .7827     1.5232     5.1992
 2325.8252     -.0031      .1363     2.3650     1.8456    76.9561    14.4649      .7736     1.5470     5.1992
 2325.9776     -.0028      .1411     2.3605     1.7620    77.3551    13.4111      .7724     1.5187     5.1992
 2326.1300     -.0035      .1446     2.3578     1.6776    77.4808    13.6286      .7753     1.4428     5.1992
 2326.2824     -.0075      .1445     2.3485     1.7692    77.1780    14.5274      .7783     1.3713     5.1992
 2326.4348     -.0048      .1416     2.3565     1.8786    76.7752    14.8568      .7791     1.3660     5.1992
 2326.5872     -.0039      .1385     2.3617     1.9119    76.1210    13.9993      .7747     1.4181     5.1992
 2326.7396     -.0053      .1356     2.3674     1.9595    75.3317    13.5727      .7667     1.4779     5.1992
 2326.8920     -.0071      .1320     2.3651     2.0179    74.7065    12.9686      .7614     1.5161     5.1992
 2327.0444     -.0045      .1302     2.3703     2.0747    74.8417    12.3992      .7629     1.5328     5.1992
 2327.1968     -.0050      .1297     2.3684     2.3588    74.9987    11.3113      .7695     1.5417     5.1992
 2327.3492     -.0040      .1293     2.3646     2.4513    75.1635    11.7428      .7725     1.5575     5.1992
 2327.5016     -.0020      .1303     2.3581     2.2374    74.7452    12.5234      .7704     1.5901     5.1992
 2327.6540      .0012      .1323     2.3554     2.0236    74.8894    13.0907      .7668     1.6173     5.1992
 2327.8064      .0022      .1382     2.3507     1.9550    74.9325    13.3184      .7658     1.6141     5.1992
 2327.9588      .0036      .1377     2.3492     1.9826    75.1968    14.2046      .7705     1.5684     5.1992
 2328.1112      .0046      .1353     2.3501     1.8389    75.5529    14.5619      .7817     1.5180     5.1992
 2328.2636      .0070      .1283     2.3597     1.8396    75.8894    14.3666      .7925     1.5463     5.1992
 2328.4160      .0067      .1271     2.3621     2.1044    76.0285    14.6696      .7992     1.6230     5.1992
 2328.5684      .0046      .1306     2.3589     2.0510    76.6623    16.0359      .8029     1.6540     5.1992
 2328.7208      .0025      .1374     2.3518     1.8521    77.1250    16.7752      .8055     1.6024     5.1992
 2328.8732      .0011      .1417     2.3453     1.8225    76.9570    16.8286      .8036     1.5112     5.1992
 2329.0256     -.0018      .1411     2.3359     1.8948    76.6396    16.1187      .7930     1.4770     5.1992
 2329.1780     -.0039      .1396     2.3289     1.8592    76.4428    15.2456      .7811     1.5013     5.1992
 2329.3304     -.0041      .1380     2.3309     1.8006    76.0110    13.9317      .7756     1.4613     5.1992
 2329.4828     -.0037      .1379     2.3328     1.7111    75.7207    12.8770      .7731     1.3493     5.1992
 2329.6352     -.0033      .1370     2.3372     1.7123    75.9947    12.3396      .7684     1.2925     5.1992
 2329.7876     -.0024      .1358     2.3383     1.8658    75.9242    12.7721      .7615     1.3596     5.1992
 2329.9400      .0001      .1382     2.3434     1.9773    75.3805    13.3954      .7540     1.4293     5.1992
 2330.0924      .0027      .1468     2.3467     1.9431    75.5945    13.9986      .7520     1.4318     5.1992
 2330.2448      .0044      .1530     2.3496     1.8799    76.0585    15.1584      .7599     1.4311     5.1992
 2330.3972      .0044      .1509     2.3521     1.9544    76.0612    15.7865      .7693     1.4488     5.1992
 2330.5496      .0028      .1422     2.3532     1.8950    76.4428    16.1538      .7739     1.4669     5.1992
 2330.7020      .0013      .1360     2.3537     1.8448    76.2740    14.1076      .7777     1.4597     5.1992
 2330.8544      .0000      .1317     2.3577     1.8812    76.1205    12.3857      .7810     1.4605     5.1992
 2331.0068     -.0026      .1287     2.3594     1.9911    75.5970    11.5130      .7837     1.5135     5.1992
 2331.1592     -.0021      .1273     2.3633     2.0712    75.0345    12.2638      .7842     1.6030     5.1992
 2331.3116     -.0028      .1274     2.3576     2.1094    74.4960    13.2913      .7821     1.6421     5.1992
 2331.4640     -.0043      .1284     2.3511     2.2032    74.2595    14.3669      .7789     1.6336     5.1992
 2331.6164     -.0047      .1303     2.3469     2.1585    74.6383    15.4312      .7722     1.5990     5.1992
 2331.7688     -.0049      .1344     2.3418     1.9678    74.9907    15.5520      .7645     1.5529     5.1992
 2331.9212     -.0070      .1383     2.3390     1.8717    75.2341    14.7674      .7653     1.5057     5.1992
 2332.0736     -.0069      .1409     2.3387     1.8548    75.4519    13.9669      .7698     1.4561     5.1992
 2332.2260     -.0060      .1393     2.3440     1.9980    74.6106    13.5727      .7674     1.4303     5.1992
 2332.3784     -.0078      .1353     2.3402     2.0851    74.2835    12.9056      .7651     1.4521     5.1992
 2332.5308     -.0072      .1320     2.3446     2.0233    74.2939    12.1812      .7646     1.5014     5.1992
 2332.6832     -.0058      .1313     2.3501     2.0004    73.8702    11.9609      .7663     1.5119     5.1992
 2332.8356     -.0053      .1300     2.3570     2.0120    73.7067    12.4790      .7728     1.5149     5.1992
 2332.9880     -.0056      .1287     2.3600     2.0113    73.9855    13.3438      .7837     1.5489     5.1992
 2333.1404     -.0047      .1280     2.3634     2.0098    73.9428    13.7571      .7952     1.5803     5.1992
 2333.2928     -.0022      .1297     2.3694     2.0212    74.1091    13.6564      .8091     1.5890     5.1992
 2333.4452     -.0019      .1265     2.3691     1.6828    74.8075    14.0303      .8249     1.6028     5.1992
