~VERSION INFORMATION
VERS.                                                 2.0:   CWLS Log ASCII Standard-VERSION 2.0
WRAP.                                                  NO:   One line per depth step
~Well Information Block
STRT.M                                           342.1868:   Top Depth
STOP.M                                          2635.3496:   Bottom Depth
STEP.M                                             .15240:   Depth Increment
NULL.                                            -999.250:   Null Value
FLD .                                              A NAME:   Field Name
WELL.                                             WELL A:   NAME
WBN .                                             WELL A:   WELLBORE
NATI.                                                 NOR:   COUNTRY
CTRY.                                                 NOR:   COUNTRY
COMP.                               	     COMPANY NAME:   OPERATOR
PROV.                                           SOMEWHERE:   PROVINCE
COUN.                                                 RIG:   RIG NAME
SPUD.                                          1970/01/01:   SPUD DATE
LATI.                                       00 00 00.00 N:   SURF. LATITUDE
LONG.                                       00 00 00.00 E:   SURF. LONGITUDE
PBWE.                                              WELL A:   PB WELL ID
PBWB.                                              WELL A:   PB WELLBORE ID
PBWS.                                                 all:   PB WELL NAME SET
~PARAMETER INFORMATION (log)
LNAM.                                           COMPOSITE:   NAME
LTYP.                                         DEPTH MATCH:   LOG TYPE
LSRV.                                              HYBRID:   LOG SERVICE
LSOU.                                                  OD:   LOG SOURCE
LVSN.                                                   1:   LOG VERSION
BHIS.                                                   R:   BRIEF HISTORY
FHIS.                                             RAW-LIS:   FULL HISTORY
LCNM.                                                EXLO:   LOGGING CONTRACTOR
TOOL.                             DIL/BHC/GR (COMPOSITED):   TOOL STRING
QCRM.                                           HQLD data:   QC COMMENT
QCCD.                                                high:   QC LEVEL
QCCO.                                               SIMON:   QC COMPANY
QCST.                                               final:   QC STATUS
~Curve Information Block
#MNEM.UNIT                                        API CODE    No Description
#=========                                        ========    == ===========
DEPT.M                                       00 001 00 00:     1  DEPTH
HDRHO.G/CC                                               :     2  Nuclear Radiation
HNPHI.FRAC                                               :     3  Nuclear Radiation
HRHOB.G/CC                                               :     4  Nuclear Radiation
HRS.OHMM                                                 :     5  Electromagnetic Response
HDT.US/F                                                 :     6  Acoustic Response
HGR.GAPI                                                 :     7  Nuclear Radiation
HRD.OHMM                                                 :     8  Electromagnetic Response
HRM.OHMM                                                 :     9  Electromagnetic Response
HCALI.IN                                                 :    10  Formation Evaluation
~ASCII
# ...
 1276.7036     -.0063      .2750     2.3533  -999.2500   108.0000    69.8125     1.9764     2.3427    12.3281
 1276.8560     -.0047      .2506     2.3651  -999.2500   106.4375    75.1250     2.0450     2.4569    12.3281
 1277.0084     -.0075      .2514     2.3655  -999.2500   106.3750    75.0000     2.1273     2.4950    12.3281
 1277.1608     -.0062      .2571     2.3786  -999.2500   104.5000    72.8750     2.2431     2.5727    12.3281
 1277.3132     -.0050      .2621     2.3862  -999.2500   100.8125    70.6875     2.3664     2.7795    12.3281
 1277.4656     -.0032      .2686     2.4008  -999.2500   100.9375    66.1250     2.4347     3.3287    12.3281
 1277.6180     -.0066      .2643     2.3948  -999.2500   100.1250    68.0625     2.4654     4.0384    12.3281
 1277.7704     -.0090      .2887     2.3794  -999.2500   100.9375    69.7500     2.4914     4.0856    12.3281
 1277.9228     -.0133      .2977     2.3624  -999.2500   104.3750    72.5625     2.4897     3.4088    12.3281
 1278.0752     -.0149      .2891     2.3546  -999.2500   104.8125    73.9375     2.4787     2.8805    12.3281
 1278.2276     -.0170      .2854     2.3552  -999.2500   105.1875    69.6250     2.4572     2.6757    12.3281
 1278.3800     -.0164      .2854     2.3592  -999.2500   105.7500    67.9375     2.3650     2.6637    12.3281
 1278.5324     -.0110      .2957     2.3675  -999.2500   106.1250    67.4375     2.2850     2.6637    12.3281
 1278.6848     -.0075      .2916     2.3761  -999.2500   106.6250    64.8125     2.2444     2.6745    12.3281
 1278.8372     -.0078      .2825     2.3782  -999.2500   106.5625    68.5000     2.2281     2.7049    12.3281
 1278.9896     -.0041      .2649     2.3861  -999.2500   106.4375    71.8125     2.2203     2.7487    12.3281
 1279.1420     -.0019      .2477     2.3894  -999.2500   106.8750    77.6875     2.2290     2.7886    12.3281
 1279.2944     -.0054      .2561     2.3820  -999.2500   106.9375    77.6875     2.2285     2.7769    12.3281
 1279.4468     -.0059      .2776     2.3742  -999.2500   107.3125    73.7500     2.2264     2.7500    12.3281
 1279.5992     -.0025      .3038     2.3804  -999.2500   108.0625    70.5625     2.2109     2.7373    12.3281
 1279.7516     -.0041      .3109     2.3785  -999.2500   108.0625    67.3750     2.1951     2.6939    12.3281
 1279.9040     -.0041      .3103     2.3815  -999.2500   108.6250    70.1250     2.1781     2.6342    12.3281
 1280.0564     -.0073      .2985     2.3694  -999.2500   109.0000    73.7500     2.1549     2.5861    12.3281
 1280.2088     -.0111      .2892     2.3664  -999.2500   108.6875    75.7500     2.1350     2.5918    12.3289
 1280.3612     -.0131      .2830     2.3656  -999.2500   109.5000    69.8750     2.1255     2.5906    12.3343
 1280.5136     -.0116      .2846     2.3766  -999.2500   109.6875    69.2500     2.1183     2.5839    12.3289
 1280.6660     -.0136      .2988     2.3723  -999.2500   109.6875    71.9375     2.1161     2.5727    12.3281
 1280.8184     -.0114      .3030     2.3772  -999.2500   109.5625    73.0000     2.1137     2.5873    12.3281
 1280.9708     -.0100      .2985     2.3755  -999.2500   109.3750    67.7500     2.1119     2.6008    12.3281
 1281.1232     -.0106      .2891     2.3791  -999.2500   109.3750    64.3125     2.1037     2.6180    12.3281
 1281.2756     -.0111      .2946     2.3795  -999.2500   109.6250    64.3750     2.1081     2.6261    12.3281
 1281.4280     -.0103      .2962     2.3808  -999.2500   108.8125    69.1250     2.1090     2.6169    12.3281
 1281.5804     -.0111      .2852     2.3762  -999.2500   109.1875    65.6875     2.1100     2.5873    12.3281
 1281.7328     -.0098      .2801     2.3692  -999.2500   109.1250    70.3750     2.1115     2.5772    12.3281
 1281.8852     -.0059      .2890     2.3711  -999.2500   109.1250    71.0000     2.1150     2.5895    12.3281
 1282.0376     -.0059      .3069     2.3681  -999.2500   109.2500    72.2500     2.1098     2.5986    12.3281
 1282.1900     -.0051      .3080     2.3748  -999.2500   108.6875    69.4375     2.1110     2.6020    12.3281
 1282.3424     -.0059      .3044     2.3769  -999.2500   107.9375    70.2500     2.1147     2.6031    12.3281
 1282.4948     -.0049      .3028     2.3945  -999.2500   107.7500    73.3125     2.1131     2.6111    12.3281
 1282.6472     -.0062      .2856     2.3992  -999.2500   108.1875    71.5000     2.1066     2.6226    12.3281
 1282.7996     -.0054      .2937     2.3962  -999.2500   108.4375    67.3125     2.1096     2.6088    12.3281
 1282.9520     -.0055      .2898     2.3775  -999.2500   109.8125    70.3125     2.1019     2.5884    12.3281
 1283.1044     -.0057      .3043     2.3663  -999.2500   110.1875    70.1875     2.0967     2.5839    12.3281
 1283.2568     -.0092      .2901     2.3569  -999.2500   109.4375    68.6875     2.1068     2.5749    12.3281
 1283.4092     -.0121      .2748     2.3529  -999.2500   109.2500    59.7188     2.0878     2.5539    12.3281
 1283.5616     -.0157      .2651     2.3467  -999.2500   109.2500    63.1250     2.0800     2.5333    12.3281
 1283.7140     -.0163      .2793     2.3475  -999.2500   109.2500    63.6563     2.0739     2.5279    12.3281
 1283.8664     -.0149      .2974     2.3467  -999.2500   109.7500    68.9375     2.0639     2.5204    12.3281
 1284.0188     -.0139      .3021     2.3458  -999.2500   109.8125    65.1875     2.0628     2.5076    12.3281
 1284.1712     -.0125      .2776     2.3492  -999.2500   109.7500    66.8125     2.0584     2.4981    12.3281
 1284.3236     -.0077      .2692     2.3599  -999.2500   109.4375    72.1875     2.0510     2.4929    12.3281
 1284.4760     -.0070      .2667     2.3667  -999.2500   109.7500    72.7500     2.0460     2.4908    12.3281
 1284.6284     -.0060      .2835     2.3677  -999.2500   110.0000    69.9375     2.0320     2.5034    12.3281
 1284.7808     -.0053      .2984     2.3627  -999.2500   110.5000    64.1250     2.0183     2.5097    12.3281
 1284.9332     -.0067      .3118     2.3535  -999.2500   110.6875    65.8125     2.0047     2.4908    12.3281
 1285.0856     -.0101      .3027     2.3416  -999.2500   110.7500    68.3125     1.9904     2.4488    12.3281
 1285.2380     -.0116      .2833     2.3435  -999.2500   111.3750    67.4375     1.9761     2.3917    12.3281
 1285.3904     -.0136      .2629     2.3421  -999.2500   111.4375    66.2500     1.9612     2.3613    12.3249
 1285.5428     -.0126      .2647     2.3507  -999.2500   111.5000    64.2500     1.9492     2.3585    12.3033
 1285.6952     -.0105      .2766     2.3519  -999.2500   112.0000    62.3437     1.9367     2.3678    12.3249
 1285.8476     -.0102      .3010     2.3527  -999.2500   112.1250    58.5313     1.9264     2.3650    12.3281
 1286.0000     -.0105      .3030     2.3493  -999.2500   111.6875    57.5313     1.9204     2.3631    12.3281
 1286.1524     -.0114      .3012     2.3423  -999.2500   111.7500    63.7813     1.9213     2.3613    12.3281
 1286.3048     -.0102      .3021     2.3389  -999.2500   112.0625    66.4375     1.9242     2.3436    12.3281
 1286.4572     -.0116      .3088     2.3322  -999.2500   111.6875    66.8125     1.9293     2.3307    12.3281
 1286.6096     -.0132      .3045     2.3323  -999.2500   111.1875    61.1563     1.9362     2.3371    12.3281
 1286.7620     -.0139      .2905     2.3348  -999.2500   110.9375    61.1563     1.9435     2.3697    12.3281
 1286.9144     -.0120      .2830     2.3411  -999.2500   111.1875    59.7188     1.9504     2.4042    12.3281
 1287.0668     -.0122      .2867     2.3456  -999.2500   110.5625    59.7188     1.9623     2.4218    12.3281
 1287.2192     -.0100      .2820     2.3512  -999.2500   110.3125    57.5313     1.9768     2.4447    12.3281
 1287.3716     -.0105      .2908     2.3630  -999.2500   110.3125    59.2813     1.9885     2.4508    12.3281
 1287.5240     -.0090      .2847     2.3727  -999.2500   110.5000    61.5625     1.9979     2.4701    12.3281
 1287.6764     -.0110      .2936     2.3794  -999.2500   109.1250    64.2500     2.0089     2.4701    12.3281
