#----------------------------------------------------------------------------
~VERSION INFORMATION
VERS.            2.0                  :CWLS LOG ASCII STANDARD -VERSION 2.0
WRAP.            NO                   :ONE LINE PER DEPTH STEP
#
# Created by marten, at DESKTOP-7JFC02N, on 2020-03-17T21:40:57.014521, using version XXX
# NOTE: Some notes for well A
# Written to las on: 2020-03-17T21:52:46.162651
# Modified on: 2020-03-17T21:40:57.273821
#  Modification: sw: None, Test data generated from VCL
#--------------------------------------------------------------------
~WELL INFORMATION
#MNEM .UNIT      DATA                 :DESCRIPTION OF MNEMONIC
#----------      ------------         -------------------------------
STRT   .m        295.0                :START DEPTH
STOP   .m        2636.1688            :STOP DEPTH
STEP   .m        0.1524               :STEP DEPTH
WELL   .         Well_F               :WELL
NULL   .         -999.25              :NULL VALUE
COMP   .                              :COMPANY
WELL   .         Well_F               :WELL
LOC    .         Norway               :LOCATION - AREA
FLD    .                              :FIELD
CTRY   .         nor                  :COUNTRY
DATE   .                              :WELL DATE
XWELL  .m        0                    :X POS
YWELL  .m        0                    :Y POS
EDF    .         24.0                 :DERRICK FLOOR ELEVATION
#
# ----------------------------------------------------------------------------
~CURVE INFORMATION
# MNEM.UNIT                                         : CURVE DESCRIPTION
# ----------                                        -------------------------------
DEPTH               .m                                : 1        DEPTH
VP_DRY              .m/s                              : 2        Vp
VP_SG08             .m/s                              : 3        Vp
VP_SO08             .m/s                              : 4        Vp
VS_DRY              .m/s                              : 5        Vs
VS_SG08             .m/s                              : 6        Vs
VS_SO08             .m/s                              : 7        Vs
RHO_DRY             .g/cm3                            : 8        Rho
RHO_SG08            .g/cm3                            : 9        Rho
RHO_SO08            .g/cm3                            : 10       Rho
PHIE                .fract                            : 11       Por
VCL                 .fract                            : 12       Volume
SW                  .fract                            : 13       Fake water saturation
#
# ----------------------------------------------------------------------------
~A                  VP_DRY              VP_SG08             VP_SO08             VS_DRY              VS_SG08             VS_SO08             RHO_DRY             RHO_SG08            RHO_SO08            PHIE                VCL                 SW                  
# ...
2028.8548           4081.8886           3988.7441           4016.2517           2415.7967           2476.6847           2429.7187           2.3614              2.2467              2.3344              0.1686              0.0                 0.2                 
2029.0072           4057.4809           3961.5555           3990.3402           2395.8376           2457.2887           2409.8813           2.3568              2.2404              2.3294              0.1712              0.0                 0.2                 
2029.1596           4004.8259           3896.8921           3932.506            2351.4238           2412.5163           2365.3804           2.3516              2.234               2.3239              0.1729              0.0                 0.2                 
2029.312            3947.6133           3826.0987           3869.4984           2301.0974           2361.6443           2314.9242           2.3451              2.2264              2.3171              0.1746              0.0                 0.2                 
2029.4644           3905.7583           3773.5353           3823.279            2259.601            2319.1634           2273.2022           2.341               2.2223              2.3131              0.1746              0.0                 0.2                 
2029.6168           3906.0043           3764.3993           3820.4674           2255.1868           2312.5696           2268.3038           2.3445              2.2296              2.3174              0.169               0.0004              0.20040000000000002 
2029.7692           3951.9953           3854.2491           3887.1904           2288.1895           2341.7122           2300.4525           2.36                2.2534              2.3349              0.1568              0.0518              0.2518              
2029.9216           4029.6922           3999.3958           3996.9006           2346.205            2393.5828           2357.0993           2.3871              2.2935              2.3651              0.1376              0.1358              0.3358              
2030.074            4057.1647           4072.4717           4047.2485           2365.3904           2406.4883           2374.8708           2.4144              2.3326              2.3951              0.1202              0.2183              0.4183              
2030.2264           4019.6244           4044.6669           4016.4995           2334.8326           2370.3441           2343.0445           2.437               2.3645              2.4199              0.1066              0.2914              0.4914              
2030.3788           3969.0084           3964.9397           3954.0018           2297.6531           2329.7596           2305.0881           2.4489              2.3819              2.4331              0.0986              0.2547              0.4547              
2030.5312           3969.3953           3862.2519           3911.0674           2299.9173           2331.7129           2307.2815           2.4522              2.3858              2.4366              0.0977              0.147               0.347               
2030.6836           4072.2281           3973.1665           4015.5729           2363.1674           2397.7878           2371.1783           2.4526              2.3823              2.4361              0.1034              0.0946              0.29460000000000003 
2030.836            4193.5529           4168.5345           4167.4218           2472.2199           2509.5584           2480.8553           2.4509              2.3786              2.4339              0.1065              0.1329              0.3329              
2030.9884           4258.8231           4288.0843           4257.3615           2534.4108           2571.4699           2542.9863           2.4574              2.3871              2.4408              0.1034              0.2168              0.4168              
2031.1408           4249.6163           4276.4252           4247.9997           2532.3103           2566.8857           2540.3199           2.4627              2.3968              2.4472              0.0969              0.219               0.41900000000000004 
2031.2932           4217.7132           4205.5136           4198.5119           2509.2225           2543.7755           2517.2258           2.4617              2.3953              2.4461              0.0977              0.1669              0.3669              
2031.4456           4206.0083           4181.4614           4179.4248           2492.226            2531.3835           2501.2759           2.4504              2.3752              2.4327              0.1106              0.1265              0.3265              
2031.598            4212.1581           4169.7662           4175.1873           2496.347            2541.72             2506.8041           2.4301              2.3441              2.4098              0.1264              0.0756              0.2756              
2031.7504           4201.2505           4161.0882           4163.6751           2487.6011           2536.7037           2498.8979           2.415               2.3224              2.3932              0.1362              0.0655              0.2655              
2031.9028           4124.5908           4105.9134           4096.4826           2424.6959           2473.4681           2435.9119           2.4077              2.3137              2.3856              0.1383              0.113               0.313               
2032.0552           4001.3447           4000.838            3982.4784           2319.8261           2365.1097           2330.2468           2.4062              2.315               2.3848              0.1342              0.1847              0.38470000000000004 
2032.2076           3891.998            3854.7022           3858.7468           2217.1172           2257.3669           2226.3938           2.4088              2.3236              2.3887              0.1252              0.1835              0.3835              
2032.36             3816.4794           3704.0426           3753.7874           2142.0889           2176.9487           2150.1404           2.4168              2.34                2.3987              0.1129              0.1503              0.3503              
2032.5124           3758.8422           3553.5095           3662.6116           2112.1382           2142.0869           2119.0719           2.4289              2.3614              2.413               0.0992              0.1431              0.3431              
2032.6648           3785.1092           3560.0538           3683.9137           2132.9716           2159.8533           2139.2064           2.4456              2.3851              2.4314              0.089               0.1463              0.34630000000000005 
2032.8172           3874.1466           3724.7422           3801.9327           2206.7324           2233.2084           2212.8773           2.4557              2.3978              2.4421              0.0851              0.1709              0.3709              
2032.9696           3976.4363           3908.9566           3936.4966           2289.1602           2316.2704           2295.4534           2.4592              2.402               2.4457              0.0842              0.2007              0.4007              
2033.122            4032.4409           4017.3662           4014.7412           2333.5959           2360.5276           2339.8498           2.4626              2.4067              2.4494              0.0822              0.2399              0.4399              
2033.2744           4082.8817           3946.4466           4015.6648           2375.2236           2401.884            2381.4167           2.4679              2.4134              2.4551              0.0801              0.1187              0.3187              
2033.4268           4157.6595           3928.2836           4053.352            2442.3898           2471.0101           2449.0344           2.4672              2.4104              2.4538              0.0836              0.0326              0.2326              
