~VERSION INFORMATION
VERS.                                                 2.0:   CWLS Log ASCII Standard-VERSION 2.0
WRAP.                                                  NO:   One line per depth step
~Well Information Block
STRT.M                                           342.1868:   Top Depth
STOP.M                                          2635.3496:   Bottom Depth
STEP.M                                             .15240:   Depth Increment
NULL.                                            -999.250:   Null Value
FLD .                                              A NAME:   Field Name
WELL.                                             WELL A:   NAME
WBN .                                             WELL A:   WELLBORE
NATI.                                                 NOR:   COUNTRY
CTRY.                                                 NOR:   COUNTRY
COMP.                               	     COMPANY NAME:   OPERATOR
PROV.                                           SOMEWHERE:   PROVINCE
COUN.                                                 RIG:   RIG NAME
SPUD.                                          1970/01/01:   SPUD DATE
LATI.                                       00 00 00.00 N:   SURF. LATITUDE
LONG.                                       00 00 00.00 E:   SURF. LONGITUDE
PBWE.                                              WELL A:   PB WELL ID
PBWB.                                              WELL A:   PB WELLBORE ID
PBWS.                                                 all:   PB WELL NAME SET
~PARAMETER INFORMATION (log)
LNAM.                                           COMPOSITE:   NAME
LTYP.                                         DEPTH MATCH:   LOG TYPE
LSRV.                                              HYBRID:   LOG SERVICE
LSOU.                                                  OD:   LOG SOURCE
LVSN.                                                   1:   LOG VERSION
BHIS.                                                   R:   BRIEF HISTORY
FHIS.                                             RAW-LIS:   FULL HISTORY
LCNM.                                                EXLO:   LOGGING CONTRACTOR
TOOL.                             DIL/BHC/GR (COMPOSITED):   TOOL STRING
QCRM.                                           HQLD data:   QC COMMENT
QCCD.                                                high:   QC LEVEL
QCCO.                                               SIMON:   QC COMPANY
QCST.                                               final:   QC STATUS
~Curve Information Block
#MNEM.UNIT                                        API CODE    No Description
#=========                                        ========    == ===========
DEPT.M                                       00 001 00 00:     1  DEPTH
HDRHO.G/CC                                               :     2  Nuclear Radiation
HNPHI.FRAC                                               :     3  Nuclear Radiation
HRHOB.G/CC                                               :     4  Nuclear Radiation
HRS.OHMM                                                 :     5  Electromagnetic Response
HDT.US/F                                                 :     6  Acoustic Response
HGR.GAPI                                                 :     7  Nuclear Radiation
HRD.OHMM                                                 :     8  Electromagnetic Response
HRM.OHMM                                                 :     9  Electromagnetic Response
HCALI.IN                                                 :    10  Formation Evaluation
~ASCII
# ...
 1877.4644      .0336      .2957     2.5198     7.3222    84.1112    81.3977     4.5366     6.0667    10.7352
 1877.6168      .0283      .2966     2.5389     6.7019    82.5217    83.2334     4.6195     5.5082    10.6689
 1877.7692      .0235      .3037     2.5476     6.2002    82.7639    81.4084     4.5502     5.4652    10.6405
 1877.9216      .0214      .3114     2.5393     8.5432    83.1702    79.5388     4.4505     5.6641    10.6522
 1878.0740      .0235      .3217     2.5256     7.4469    83.7257    81.6551     4.1935     5.9272    10.7055
 1878.2264      .0274      .3252     2.5230     7.3237    84.0895    86.3907     3.9945     5.8060    10.7099
 1878.3788      .0287      .3245     2.5356     4.1856    83.8947    89.2133     3.9935     5.4692    10.6628
 1878.5312      .0243      .3213     2.5497     6.6499    81.8050    87.2292     3.9924     5.0500    10.5550
 1878.6836      .0197      .3133     2.5617     5.7475    79.5983    81.6291     4.0153     4.5754    10.4824
 1878.8360      .0208      .3007     2.5928     7.2950    77.9784    76.0567     4.0562     4.4373    10.4866
 1878.9884      .0302      .2938     2.6248    10.9433    74.8702    73.0601     4.0970     4.7598    10.5106
 1879.1408      .0277      .2937     2.6416     5.1488    69.0101    71.8998     4.0437     5.3721    10.5550
 1879.2932      .0217      .2897     2.6409     4.8343    63.6316    70.4358     4.0186     5.7836    10.6040
 1879.4456      .0166      .2770     2.6322     2.9934    62.4847    68.1032     4.3613     5.8056    10.6257
 1879.5980      .0149      .2605     2.6005     4.5248    62.1323    65.1241     4.7037     5.6462    10.6406
 1879.7504      .0167      .2483     2.5431     7.6480    63.7879    61.5512     4.9321     5.6950    10.6536
 1879.9028      .0240      .2425     2.5106    11.1068    66.1976    57.5898     5.0461     6.2948    10.6680
 1880.0552      .0381      .2400     2.5348     6.8854    68.3742    55.0114     5.0948     7.2250    10.6905
 1880.2076      .0477      .2462     2.6012     8.0769    69.4499    55.5208     5.0319     8.2725    10.7083
 1880.3600      .0417      .2701     2.6297     9.3906    69.8838    58.2545     4.9690     9.1370    10.7152
 1880.5124      .0353      .3007     2.6086    12.1551    71.3436    61.5151     4.9003     9.3353    10.7564
 1880.6648      .0365      .3321     2.5486     4.0564    76.1263    63.8404     4.7857     8.3889    10.8515
 1880.8172      .0361      .3401     2.4729     3.2757    81.2049    64.4547     4.6711     7.1068    10.9417
 1880.9696      .0279      .3195     2.4214     6.6166    83.7927    62.9717     4.7103     6.1740    10.9568
 1881.1220      .0184      .2801     2.4226     5.8205    83.7068    59.2226     4.7895     5.3355    10.9110
 1881.2744      .0097      .2373     2.4723     6.1410    78.4814    53.6234     4.7967     5.0901    10.8304
 1881.4268      .0023      .2071     2.5260     5.7937    74.8689    49.6054     4.7624     5.1356    10.7889
 1881.5792     -.0037      .2049     2.5539     9.3550    73.9941    51.0193     4.7282     5.5652    10.7999
 1881.7316     -.0092      .2291     2.5572    16.0922    75.1962    56.9709     4.8687     6.5391    10.8147
 1881.8840     -.0121      .2499     2.5485    10.1685    77.0253    64.0445     5.0123     7.7438    10.8182
 1882.0364     -.0110      .2621     2.5434    10.2306    78.4605    68.7325     5.3359     8.1138    10.8058
 1882.1888     -.0099      .2702     2.5457    15.7904    78.4658    70.0498     5.6985     7.6247    10.8056
 1882.3412     -.0077      .2757     2.5535     7.2368    78.6430    69.6113     5.9292     7.2153    10.8045
 1882.4936     -.0047      .2778     2.5609     7.0944    79.5277    68.8701     5.9479     7.1307    10.7979
 1882.6460     -.0028      .2761     2.5636     8.4000    80.5684    69.0214     5.7405     7.1288    10.7817
 1882.7984     -.0023      .2754     2.5634     8.3404    82.0197    70.4512     5.4574     7.1269    10.7623
 1882.9508     -.0023      .2787     2.5624     8.3864    82.8514    72.5724     5.4118     7.1250    10.7429
 1883.1032     -.0023      .2808     2.5566     8.0501    82.6615    73.5488     5.3911     7.1231    10.7176
 1883.2556     -.0021      .2761     2.5494     7.4757    80.4901    72.2256     5.3848     7.0289    10.6966
 1883.4080     -.0009      .2783     2.5400     6.9314    79.8445    70.0633     5.5173     6.9165    10.6809
 1883.5604      .0017      .2934     2.5269     8.4796    80.1504    68.8279     5.4870     6.9270    10.6926
 1883.7128      .0058      .3243     2.4979     6.3251    82.5413    69.0095     5.3850     7.0572    10.7877
 1883.8652      .0108      .3399     2.4645     7.2462    85.6337    70.5286     5.0745     7.3119    10.9342
 1884.0176      .0169      .3316     2.4480     3.6650    87.7960    73.4864     5.2320     7.1968    11.1047
 1884.1700      .0237      .3132     2.4506     3.3323    88.1456    77.1122     5.3138     6.5968    11.1728
 1884.3224      .0293      .2902     2.4690     4.5542    84.7491    78.1882     5.3334     5.9407    10.9746
 1884.4748      .0275      .2603     2.4861     5.9344    79.2936    73.7722     5.3783     5.6036    10.7090
 1884.6272      .0250      .2408     2.5131     6.8184    73.9538    66.6721     5.5104     5.9217    10.6444
 1884.7796      .0243      .2348     2.5593     8.0497    72.1741    62.9122     5.5451     7.2949    10.6444
 1884.9320      .0211      .2490     2.5940    15.6991    74.0321    64.7030     5.5436     8.9294    10.6464
 1885.0844      .0112      .2609     2.6036    31.5026    77.6794    69.4618     5.6146    10.1898    10.6605
 1885.2368      .0041      .2580     2.6044     9.0711    80.4236    73.4040     5.7873     9.1990    10.6938
 1885.3892     -.0018      .2509     2.6082     6.7660    80.5827    74.2528     5.9487     7.0907    10.7035
 1885.5416     -.0057      .2520     2.6203     7.3826    78.9292    72.9548     6.0456     6.0952    10.7034
 1885.6940     -.0076      .2650     2.6353     7.7889    78.1141    72.1365     5.9284     5.5986    10.7025
 1885.8464     -.0090      .2752     2.6467     9.2635    77.9984    73.4434     5.6023     5.8265    10.6949
 1885.9988     -.0105      .2760     2.6530     9.0467    78.2018    75.9911     5.2759     6.0735    10.6689
 1886.1512     -.0112      .2733     2.6563     6.4595    78.8003    77.9965     5.0763     6.1060    10.6578
 1886.3036     -.0101      .2823     2.6595     6.3285    78.5097    79.0235     5.0353     5.9792    10.6522
 1886.4560     -.0066      .3029     2.6610     7.9457    77.9204    79.5169     4.9944     6.0423    10.6463
 1886.6084     -.0026      .3100     2.6587     8.3449    78.6396    79.6117     4.9534     6.3827    10.6374
 1886.7608     -.0002      .2962     2.6508     7.2124    80.0121    77.8399     4.9506     6.6821    10.6201
 1886.9132      .0011      .2733     2.6477     6.3402    79.7538    74.3203     5.0368     6.4543    10.6031
 1887.0656      .0018      .2437     2.6534     5.1702    75.8007    70.5276     5.3264     6.0286    10.5867
 1887.2180      .0021      .2210     2.6636     8.3936    71.9590    66.7826     5.6157     5.7631    10.5698
 1887.3704      .0005      .2117     2.6678    11.7573    70.5192    63.9655     5.7938     6.4229    10.5495
 1887.5228     -.0005      .2207     2.6629    17.2147    72.6432    63.2967     5.9039     8.2068    10.5221
 1887.6752     -.0010      .2379     2.6465    11.6960    74.7513    64.8855     6.0074     9.9860    10.4724
 1887.8276     -.0032      .2496     2.6109     7.7802    75.7366    66.3267     6.5672    10.3727    10.3409
 1887.9800     -.0076      .2360     2.5628     7.6002    75.7386    64.0056     7.3213     9.4685    10.1773
 1888.1324     -.0131      .2064     2.5085    13.8122    74.8499    57.5323     8.0178     8.3269     9.9563
 1888.2848     -.0187      .1867     2.4579    14.0925    74.8748    47.8264     8.7018     8.8122     9.7124
 1888.4372     -.0239      .1774     2.4057     5.7928    75.5826    38.1951     9.1811     9.3660     9.5644
