~Version
 VERS              .         3.0                           : CWLS LOG ASCII STANDARD - VERSION 3.0
 WRAP              .         NO                            : ONE LINE PER DEPTH STEP
 DLM               .         SPACE                         : DELIMITING CHARACTER(SPACE TAB OR COMMA)
~Well Information
#_______________________________________________________________________________
#
#PARAMETER_NAME    .UNIT     VALUE                         : DESCRIPTION
#_______________________________________________________________________________
STRT               .m        563.118                       : First reference value
STOP               .m        914.2476                      : Last reference value
STEP               .m        0.1524                        : Step increment
NULL               .         -9999                         : Missing value
COMP               .         SomeCompany                   : Company
WELL               .         Well_E                        : Well name
FLD                .                                       : Field
LOC                .                                       : Location
SRVC               .                                       : Service Company
CTRY               .         NO                            : Country
DATE               .                                       : Service Date
LATI               .deg      70.000000                     : Latitude
LONG               .deg      35.000000                     : Longitude
GDAT               .                                       : Geodetic Datum
Completion_date    .         2020-02-17                    : Completed date
COUNTRY            .         Norway                        : 
EREF               .m        25.0                          : Kelly bushing elevation
DREF               .m        MSL                           : 
HZCS               .         ED50-UTM35                    : UTM zone
LGWN               .         Well_E                        : Wellbore name
OPER               .         SomeCompany                   : Drilling operator group
SPDA               .         2020-02-17                    : Entered date
SHWN               .         Well_E                        : Well name
STAT               .         BARENTS SEA                   : Main area
TD                 .m        930.0                         : Total depth
UWI                .         Well_E                        : NPDID wellbore
Water_depth        .m        400.0                         : Water depth
X                  .m        400000.00                     : EW UTM
Y                  .m        8000000.00                    : NS UTM
~Parameter Information Block
#_______________________________________________________________________________
#
#PARAMETER_NAME    .UNIT     VALUE                         : DESCRIPTION
#_______________________________________________________________________________
SET                .         CPI                           : 
TLFamily_DEPTH     .         Measured Depth                : 
TLFamily_PHIE      .         Effective Porosity            : 
TLFamily_PHIT      .         Total Porosity                : 
TLFamily_SW        .         Water Saturation              : 
TLFamily_VSH       .         Shale Volume Fraction         : 
~Curve Information
#_______________________________________________________________________________
#
#LOGNAME           .UNIT     LOG_ID                        : DESCRIPTION
#_______________________________________________________________________________
DEPTH              .m                                      :  {F}
PHIE_test          .v/v                                    : Porosity {F}
PHIT_test          .v/v                                    : Porosity {F}
SW_test            .v/v                                    :  {F}
VSH_test           .v/v                                    : Vshale {F}
~Ascii
# ...
629.8692   0          0.1134038  1          1         
630.0216   0          0.1084859  1          1         
630.174    0          0.1037402  1          1         
630.3264   0          0.1041506  1          1         
630.4788   0          0.1051711  1          1         
630.6312   0          0.1096427  1          1         
630.7836   0          0.1161106  1          1         
630.936    0          0.1205908  1          1         
631.0884   0          0.1218063  1          1         
631.2408   0.004304345 0.1277612  1          1         
631.3932   0.002085279 0.1255421  1          1         
631.5456   0          0.1210865  1          1         
631.698    0          0.1124884  1          1         
631.8504   0          0.09861124 1          1         
632.0028   0          0.08728901 1          1         
632.1552   0          0.08991927 1          1         
632.3076   0          0.08619332 1          1         
632.46     0          0.08856617 1          1         
632.6124   0          0.09658527 1          1         
632.7648   0          0.1132457  1          1         
632.9172   0.001304972 0.1247618  1          1         
633.0696   0          0.1219945  1          1         
633.222    0          0.1171637  1          1         
633.3744   0          0.1157285  1          1         
633.5268   0          0.1145408  1          1         
633.6792   0          0.1125717  1          1         
633.8316   0          0.108802   1          1         
633.984    0          0.1008218  1          1         
634.1364   -9999      -9999      -9999      1         
634.2888   -9999      -9999      -9999      1         
634.4412   -9999      -9999      -9999      1         
634.5936   -9999      -9999      -9999      1         
634.746    -9999      -9999      -9999      1         
634.8984   -9999      -9999      -9999      1         
635.0508   -9999      -9999      -9999      1         
635.2032   -9999      -9999      -9999      1         
635.3556   -9999      -9999      -9999      1         
635.508    -9999      -9999      -9999      1         
635.6604   -9999      -9999      -9999      1         
635.8128   -9999      -9999      -9999      1         
635.9652   0.01256054 0.1360174  1          1         
636.1176   0          0.1189809  1          1         
636.27     0          0.1224309  1          1         
636.4224   0.008514788 0.1319716  1          1         
636.5748   0.01249387 0.1359507  1          1         
636.7272   0.01645368 0.1399105  1          1         
636.8796   0.0135173  0.1369741  1          1         
637.032    0.01203337 0.1354902  1          1         
637.1844   0.006692644 0.1301495  1          1         
637.3368   0.005120407 0.1285772  1          1         
637.4892   0.005404304 0.1288611  1          1         
637.6416   0.007745664 0.1312025  1          1         
637.794    0.007512386 0.1309692  1          1         
637.9464   0.005287747 0.1287446  1          1         
638.0988   0.003433968 0.1268908  1          1         
638.2512   0.001851271 0.1253081  1          1         
638.4036   0.002027731 0.1254845  1          1         
638.556    0          0.121581   1          1         
638.7084   0          0.1166698  1          1         
638.8608   0          0.114584   1          0.9752704 
639.0132   0          0.1101451  1          1         
639.1656   0          0.108781   1          1         
639.318    0          0.1060377  1          1         
639.4704   0          0.1037729  1          1         
639.6228   0          0.1028828  1          1         
639.7752   0          0.1027506  1          1         
639.9276   0          0.1078617  1          1         
640.08     0          0.114589   1          1         
640.2324   0          0.1200161  1          1         
640.3848   0.01254199 0.1359988  1          1         
640.5372   0.01315306 0.1366099  1          1         
640.6896   0.007717993 0.1311748  1          1         
640.842    0          0.1092162  1          1         
640.9944   0          0.1022692  1          1         
641.1468   0          0.09962099 1          1         
641.2992   0          0.1032988  1          1         
641.4516   0          0.1057654  1          1         
641.604    0          0.1079957  1          1         
641.7564   0          0.1103772  1          1         
641.9088   0          0.1107297  1          1         
642.0612   0          0.1156068  1          1         
642.2136   0          0.1181735  1          1         
642.366    0          0.1215174  1          1         
642.5184   0          0.118558   1          1         
642.6708   0          0.1147333  1          1         
642.8232   0          0.1124611  1          1         
642.9756   0          0.1110124  1          1         
643.128    0          0.1137358  1          1         
643.2804   0          0.1166519  1          1         
643.4328   0          0.1201322  1          1         
643.5852   0          0.1200099  1          1         
643.7376   0          0.1166828  1          1         
643.89     0          0.1169723  1          1         
644.0424   0.008815449 0.1322723  1          1         
644.1948   0.01990191 0.1433587  1          1         
644.3472   0.01288344 0.1363402  1          1         
644.4996   0          0.1232352  1          1         
644.652    0          0.111397   1          1         
644.8044   0          0.1125574  1          1         
644.9568   0          0.1075204  1          1         
645.1092   0          0.1010346  1          1         
645.2616   0          0.1015946  1          1         
645.414    0          0.100134   1          1         
645.5664   0          0.1026335  1          1         
645.7188   0          0.101955   1          1         
645.8712   0          0.09657291 1          1         
646.0236   0          0.09538273 1          1         
646.176    0          0.09284387 1          1         
646.3284   0          0.09262105 1          1         
646.4808   0          0.09394825 1          1         
646.6332   0          0.09769142 1          1         
646.7856   0          0.1039933  1          1         
646.938    0          0.1061297  1          1         
647.0904   0          0.1036623  1          1         
647.2428   0          0.1036963  1          1         
647.3952   0          0.1033896  1          1         
647.5476   0          0.09448704 1          1         
647.7      0          0.08482844 1          1         
647.8524   0          0.08014999 1          1         
648.0048   0          0.08789507 1          1         
648.1572   0          0.09251921 1          1         
648.3096   0          0.0963963  1          1         
648.462    0          0.09650198 1          1         
648.6144   0          0.09284446 1          1         
648.7668   0          0.08726237 1          1         
648.9192   0          0.08770624 1          1         
649.0716   0          0.08994325 1          1         
649.224    0          0.08978769 1          1         
649.3764   0          0.08468951 1          1         
649.5288   0          0.07892229 1          1         
649.6812   0          0.07948713 1          1         
649.8336   0          0.07955012 1          1         
649.986    0          0.0825723  1          1         
650.1384   0          0.07991923 1          1         
650.2908   0          0.08223586 1          1         
650.4432   0          0.08798896 1          1         
650.5956   0          0.09078405 1          1         
650.748    0          0.09006305 1          1         
650.9004   0          0.08362354 1          1         
651.0528   0          0.08116047 1          1         
651.2052   0          0.08029024 1          1         
651.3576   0          0.07791431 1          1         
651.51     0          0.07992291 1          1         
651.6624   0          0.08192282 1          1         
651.8148   0          0.08437471 1          1         
651.9672   0          0.08339513 1          1         
