#----------------------------------------------------------------------------
~VERSION INFORMATION
VERS.            2.0                  :CWLS LOG ASCII STANDARD -VERSION 2.0
WRAP.            NO                   :ONE LINE PER DEPTH STEP
#
# Created by marten, at DESKTOP-7JFC02N, on 2020-03-17T21:40:57.014521, using version XXX
# NOTE: Some notes for well A
# Written to las on: 2020-03-17T21:52:46.162651
# Modified on: 2020-03-17T21:40:57.273821
#  Modification: sw: None, Test data generated from VCL
#--------------------------------------------------------------------
~WELL INFORMATION
#MNEM .UNIT      DATA                 :DESCRIPTION OF MNEMONIC
#----------      ------------         -------------------------------
STRT   .m        295.0                :START DEPTH
STOP   .m        2636.1688            :STOP DEPTH
STEP   .m        0.1524               :STEP DEPTH
WELL   .         Well_F               :WELL
NULL   .         -999.25              :NULL VALUE
COMP   .                              :COMPANY
WELL   .         Well_F               :WELL
LOC    .         Norway               :LOCATION - AREA
FLD    .                              :FIELD
CTRY   .         nor                  :COUNTRY
DATE   .                              :WELL DATE
XWELL  .m        0                    :X POS
YWELL  .m        0                    :Y POS
EDF    .         24.0                 :DERRICK FLOOR ELEVATION
#
# ----------------------------------------------------------------------------
~CURVE INFORMATION
# MNEM.UNIT                                         : CURVE DESCRIPTION
# ----------                                        -------------------------------
DEPTH               .m                                : 1        DEPTH
VP_DRY              .m/s                              : 2        Vp
VP_SG08             .m/s                              : 3        Vp
VP_SO08             .m/s                              : 4        Vp
VS_DRY              .m/s                              : 5        Vs
VS_SG08             .m/s                              : 6        Vs
VS_SO08             .m/s                              : 7        Vs
RHO_DRY             .g/cm3                            : 8        Rho
RHO_SG08            .g/cm3                            : 9        Rho
RHO_SO08            .g/cm3                            : 10       Rho
PHIE                .fract                            : 11       Por
VCL                 .fract                            : 12       Volume
SW                  .fract                            : 13       Fake water saturation
#
# ----------------------------------------------------------------------------
~A                  VP_DRY              VP_SG08             VP_SO08             VS_DRY              VS_SG08             VS_SO08             RHO_DRY             RHO_SG08            RHO_SO08            PHIE                VCL                 SW                  
# ...
2175.3112           3447.7506           3447.7506           3447.7506           1786.3492           1786.3492           1786.3492           2.589               2.589               2.589               0.0001              1.0                 1.0                 
2175.4636           3466.5634           3466.5634           3466.5634           1800.8292           1800.8292           1800.8292           2.5865              2.5865              2.5865              0.0001              1.0                 1.0                 
2175.616            3475.212            3475.212            3475.212            1807.4859           1807.4859           1807.4859           2.5801              2.5801              2.5801              0.0001              1.0                 1.0                 
2175.7684           3486.4542           3486.4542           3486.4542           1816.1389           1816.1389           1816.1389           2.5769              2.5769              2.5769              0.0001              1.0                 1.0                 
2175.9208           3504.3908           3504.3908           3504.3908           1829.9446           1829.9446           1829.9446           2.5781              2.5781              2.5781              0.0001              1.0                 1.0                 
2176.0732           3491.5145           3491.5145           3491.5145           1820.0338           1820.0338           1820.0338           2.5811              2.5811              2.5811              0.0001              1.0                 1.0                 
2176.2256           3465.0285           3465.0285           3465.0285           1799.6478           1799.6478           1799.6478           2.5912              2.5912              2.5912              0.0001              1.0                 1.0                 
2176.378            3450.3098           3450.3098           3450.3098           1788.3189           1788.3189           1788.3189           2.6029              2.6029              2.6029              0.0001              1.0                 1.0                 
2176.5304           3441.4974           3441.4974           3441.4974           1781.5361           1781.5361           1781.5361           2.6042              2.6042              2.6042              0.0001              1.0                 1.0                 
2176.6828           3476.6275           3476.6275           3476.6275           1808.5754           1808.5754           1808.5754           2.5949              2.5949              2.5949              0.0001              1.0                 1.0                 
2176.8352           3533.4597           3533.4597           3533.4597           1852.3186           1852.3186           1852.3186           2.5848              2.5848              2.5848              0.0001              1.0                 1.0                 
2176.9876           3557.7136           3557.7136           3557.7136           1870.9866           1870.9866           1870.9866           2.5763              2.5763              2.5763              0.0001              1.0                 1.0                 
2177.14             3550.7088           3550.7088           3550.7088           1865.595            1865.595            1865.595            2.5707              2.5707              2.5707              0.0001              1.0                 1.0                 
2177.2924           3509.2526           3509.2526           3509.2526           1833.6867           1833.6867           1833.6867           2.5745              2.5745              2.5745              0.0001              1.0                 1.0                 
2177.4448           3447.7538           3447.7538           3447.7538           1786.3516           1786.3516           1786.3516           2.5823              2.5823              2.5823              0.0001              1.0                 1.0                 
2177.5972           3419.889            3419.889            3419.889            1764.9044           1764.9044           1764.9044           2.5877              2.5877              2.5877              0.0001              1.0                 1.0                 
2177.7496           3420.3418           3420.3418           3420.3418           1765.2529           1765.2529           1765.2529           2.5896              2.5896              2.5896              0.0001              1.0                 1.0                 
2177.902            3410.6911           3410.6911           3410.6911           1757.8249           1757.8249           1757.8249           2.5867              2.5867              2.5867              0.0001              1.0                 1.0                 
2178.0544           3406.481            3406.481            3406.481            1754.5844           1754.5844           1754.5844           2.5821              2.5821              2.5821              0.0001              1.0                 1.0                 
2178.2068           3418.3433           3418.3433           3418.3433           1763.7146           1763.7146           1763.7146           2.5804              2.5804              2.5804              0.0001              1.0                 1.0                 
2178.3592           3430.5301           3430.5301           3430.5301           1773.0947           1773.0947           1773.0947           2.5817              2.5817              2.5817              0.0001              1.0                 1.0                 
2178.5116           3439.6417           3439.6417           3439.6417           1780.1078           1780.1078           1780.1078           2.5799              2.5799              2.5799              0.0001              1.0                 1.0                 
2178.664            3445.6096           3445.6096           3445.6096           1784.7012           1784.7012           1784.7012           2.5787              2.5787              2.5787              0.0001              1.0                 1.0                 
2178.8164           3443.0446           3443.0446           3443.0446           1782.727            1782.727            1782.727            2.5813              2.5813              2.5813              0.0001              1.0                 1.0                 
2178.9688           3444.966            3444.966            3444.966            1784.2059           1784.2059           1784.2059           2.5832              2.5832              2.5832              0.0001              1.0                 1.0                 
2179.1212           3454.1809           3454.1809           3454.1809           1791.2985           1791.2985           1791.2985           2.582               2.582               2.582               0.0001              1.0                 1.0                 
2179.2736           3474.3117           3474.3117           3474.3117           1806.793            1806.793            1806.793            2.5801              2.5801              2.5801              0.0001              1.0                 1.0                 
2179.426            3505.9266           3505.9266           3505.9266           1831.1266           1831.1266           1831.1266           2.584               2.584               2.584               0.0001              1.0                 1.0                 
2179.5784           3502.0655           3502.0655           3502.0655           1828.1548           1828.1548           1828.1548           2.603               2.603               2.603               0.0001              1.0                 1.0                 
2179.7308           3487.8091           3487.8091           3487.8091           1817.1818           1817.1818           1817.1818           2.628               2.628               2.628               0.0001              1.0                 1.0                 
2179.8832           3472.9558           3472.9558           3472.9558           1805.7493           1805.7493           1805.7493           2.6427              2.6427              2.6427              0.0001              1.0                 1.0                 
