#----------------------------------------------------------------------------
~VERSION INFORMATION
VERS.            2.0                  :CWLS LOG ASCII STANDARD -VERSION 2.0
WRAP.            NO                   :ONE LINE PER DEPTH STEP
#
# Created by marten, at DESKTOP-7JFC02N, on 2020-03-17T21:40:57.014521, using version XXX
# NOTE: Some notes for well A
# Written to las on: 2020-03-17T21:52:46.162651
# Modified on: 2020-03-17T21:40:57.273821
#  Modification: sw: None, Test data generated from VCL
#--------------------------------------------------------------------
~WELL INFORMATION
#MNEM .UNIT      DATA                 :DESCRIPTION OF MNEMONIC
#----------      ------------         -------------------------------
STRT   .m        295.0                :START DEPTH
STOP   .m        2636.1688            :STOP DEPTH
STEP   .m        0.1524               :STEP DEPTH
WELL   .         Well_F               :WELL
NULL   .         -999.25              :NULL VALUE
COMP   .                              :COMPANY
WELL   .         Well_F               :WELL
LOC    .         Norway               :LOCATION - AREA
FLD    .                              :FIELD
CTRY   .         nor                  :COUNTRY
DATE   .                              :WELL DATE
XWELL  .m        0                    :X POS
YWELL  .m        0                    :Y POS
EDF    .         24.0                 :DERRICK FLOOR ELEVATION
#
# ----------------------------------------------------------------------------
~CURVE INFORMATION
# MNEM.UNIT                                         : CURVE DESCRIPTION
# ----------                                        -------------------------------
DEPTH               .m                                : 1        DEPTH
VP_DRY              .m/s                              : 2        Vp
VP_SG08             .m/s                              : 3        Vp
VP_SO08             .m/s                              : 4        Vp
VS_DRY              .m/s                              : 5        Vs
VS_SG08             .m/s                              : 6        Vs
VS_SO08             .m/s                              : 7        Vs
RHO_DRY             .g/cm3                            : 8        Rho
RHO_SG08            .g/cm3                            : 9        Rho
RHO_SO08            .g/cm3                            : 10       Rho
PHIE                .fract                            : 11       Por
VCL                 .fract                            : 12       Volume
SW                  .fract                            : 13       Fake water saturation
#
# ----------------------------------------------------------------------------
~A                  VP_DRY              VP_SG08             VP_SO08             VS_DRY              VS_SG08             VS_SO08             RHO_DRY             RHO_SG08            RHO_SO08            PHIE                VCL                 SW                  
# ...
2326.492            3984.642            3875.8519           3911.5845           2346.7064           2408.8288           2360.8904           2.3588              2.2387              2.3306              0.1766              0.0                 0.2                 
2326.6444           4020.9649           3916.5439           3950.1655           2376.5801           2438.0675           2390.6286           2.364               2.2463              2.3363              0.1731              0.0                 0.2                 
2326.7968           4058.868            3962.5564           3991.5789           2408.0055           2469.7153           2422.1087           2.3665              2.2497              2.339               0.1717              0.0                 0.2                 
2326.9492           4077.1992           3985.9416           4011.9936           2422.8405           2484.8967           2437.0231           2.367               2.2503              2.3395              0.1717              0.0                 0.2                 
2327.1016           4069.3959           3972.7335           4002.2426           2416.5654           2477.6626           2430.5341           2.3696              2.2542              2.3424              0.1697              0.0                 0.2                 
2327.254            4060.7244           3964.3295           3993.4472           2409.5921           2471.2032           2423.6737           2.367               2.2504              2.3396              0.1714              0.0                 0.2                 
2327.4064           4063.644            3972.903            3998.2551           2411.9399           2474.8859           2426.318            2.3622              2.2436              2.3343              0.1745              0.0                 0.2                 
2327.5588           4074.9099           3991.9289           4012.2671           2420.9995           2485.4942           2435.7224           2.3571              2.2364              2.3287              0.1776              0.0                 0.2                 
2327.7112           4069.1237           3987.6031           4006.7905           2416.3465           2481.5884           2431.2339           2.3536              2.2315              2.3249              0.1796              0.0                 0.2                 
2327.8636           4062.7716           3983.2223           4000.9347           2410.7955           2476.8499           2425.8616           2.3502              2.2265              2.3211              0.1819              0.0                 0.2                 
2328.016            4048.4899           3966.4278           3985.5921           2397.6262           2463.4523           2412.6393           2.35                2.2261              2.3209              0.1822              0.0                 0.2                 
2328.1684           4032.2397           3943.6598           3967.0123           2382.3827           2446.8247           2397.0868           2.3547              2.2323              2.3259              0.18                0.0                 0.2                 
2328.3208           4018.2681           3917.8792           3948.8692           2371.247            2433.3955           2385.4412           2.3615              2.2424              2.3335              0.1751              0.0                 0.2                 
2328.4732           3998.6532           3890.8298           3926.2513           2357.4314           2419.0671           2371.5095           2.3613              2.2425              2.3333              0.1747              0.0                 0.2                 
2328.6256           3967.3085           3853.0791           3891.9866           2332.3022           2394.1496           2346.4227           2.3563              2.2361              2.328               0.1767              0.0                 0.2                 
2328.778            3956.7945           3846.8235           3882.6524           2322.3094           2385.5497           2336.7363           2.3497              2.2268              2.3208              0.1808              0.0                 0.2                 
2328.9304           3970.9859           3873.643            3901.3706           2331.4451           2396.8605           2346.3544           2.3427              2.2165              2.313               0.1855              0.0                 0.2                 
2329.0828           3987.6046           3905.5193           3923.4017           2343.6074           2411.9596           2359.1666           2.3349              2.2044              2.3042              0.1919              0.0                 0.2                 
2329.2352           4005.3059           3932.2067           3944.4956           2356.0062           2425.6776           2371.8585           2.3321              2.2                 2.301               0.1942              0.0                 0.2                 
2329.3876           4027.0258           3958.667            3968.3466           2371.9025           2441.5242           2387.7474           2.3345              2.2033              2.3037              0.193               0.0                 0.2                 
2329.54             4031.0838           3961.2565           3972.0464           2375.2748           2444.2399           2390.9759           2.3374              2.2073              2.3068              0.1912              0.0                 0.2                 
2329.6924           4022.2211           3946.8074           3961.1399           2369.3301           2437.3221           2384.8156           2.34                2.2113              2.3098              0.1893              0.0                 0.2                 
2329.8448           4033.3434           3958.1409           3972.5211           2380.1666           2447.8983           2395.5969           2.3421              2.2143              2.312               0.188               0.0                 0.2                 
2329.9972           4045.381            3968.1275           3984.1051           2391.5419           2458.3549           2406.7718           2.346               2.2202              2.3164              0.185               0.0                 0.2                 
2330.1496           4027.5529           3942.1526           3963.1854           2378.5055           2444.1623           2393.4774           2.3488              2.2243              2.3195              0.1831              0.0                 0.2                 
2330.302            4011.3639           3918.1652           3944.0651           2365.8307           2430.3261           2380.5435           2.3513              2.2282              2.3223              0.1811              0.0                 0.2                 
2330.4544           4003.0235           3904.7433           3933.8642           2358.9708           2422.6151           2373.494            2.3532              2.2311              2.3244              0.1794              0.0                 0.2                 
2330.6068           3993.0615           3891.2593           3922.4954           2351.9427           2415.2873           2366.3983           2.3539              2.232               2.3252              0.1792              0.0                 0.2                 
2330.7592           4001.2507           3901.261            3931.4683           2359.859            2423.2882           2374.3348           2.3556              2.2339              2.327               0.179               0.0                 0.2                 
2330.9116           4016.0671           3916.3609           3946.6966           2372.288            2435.1489           2386.6402           2.3586              2.2384              2.3303              0.1768              0.0                 0.2                 
2331.064            4043.6494           3948.6436           3976.4175           2395.4333           2458.241            2409.7779           2.361               2.2419              2.333               0.1752              0.0                 0.2                 
