~VERSION INFORMATION
VERS.                                                 2.0:   CWLS Log ASCII Standard-VERSION 2.0
WRAP.                                                  NO:   One line per depth step
~Well Information Block
STRT.M                                           342.1868:   Top Depth
STOP.M                                          2635.3496:   Bottom Depth
STEP.M                                             .15240:   Depth Increment
NULL.                                            -999.250:   Null Value
FLD .                                              A NAME:   Field Name
WELL.                                             WELL A:   NAME
WBN .                                             WELL A:   WELLBORE
NATI.                                                 NOR:   COUNTRY
CTRY.                                                 NOR:   COUNTRY
COMP.                               	     COMPANY NAME:   OPERATOR
PROV.                                           SOMEWHERE:   PROVINCE
COUN.                                                 RIG:   RIG NAME
SPUD.                                          1970/01/01:   SPUD DATE
LATI.                                       00 00 00.00 N:   SURF. LATITUDE
LONG.                                       00 00 00.00 E:   SURF. LONGITUDE
PBWE.                                              WELL A:   PB WELL ID
PBWB.                                              WELL A:   PB WELLBORE ID
PBWS.                                                 all:   PB WELL NAME SET
~PARAMETER INFORMATION (log)
LNAM.                                           COMPOSITE:   NAME
LTYP.                                         DEPTH MATCH:   LOG TYPE
LSRV.                                              HYBRID:   LOG SERVICE
LSOU.                                                  OD:   LOG SOURCE
LVSN.                                                   1:   LOG VERSION
BHIS.                                                   R:   BRIEF HISTORY
FHIS.                                             RAW-LIS:   FULL HISTORY
LCNM.                                                EXLO:   LOGGING CONTRACTOR
TOOL.                             DIL/BHC/GR (COMPOSITED):   TOOL STRING
QCRM.                                           HQLD data:   QC COMMENT
QCCD.                                                high:   QC LEVEL
QCCO.                                               SIMON:   QC COMPANY
QCST.                                               final:   QC STATUS
~Curve Information Block
#MNEM.UNIT                                        API CODE    No Description
#=========                                        ========    == ===========
DEPT.M                                       00 001 00 00:     1  DEPTH
HDRHO.G/CC                                               :     2  Nuclear Radiation
HNPHI.FRAC                                               :     3  Nuclear Radiation
HRHOB.G/CC                                               :     4  Nuclear Radiation
HRS.OHMM                                                 :     5  Electromagnetic Response
HDT.US/F                                                 :     6  Acoustic Response
HGR.GAPI                                                 :     7  Nuclear Radiation
HRD.OHMM                                                 :     8  Electromagnetic Response
HRM.OHMM                                                 :     9  Electromagnetic Response
HCALI.IN                                                 :    10  Formation Evaluation
~ASCII
# ...
  675.9428     -.0003      .4294     2.1752  -999.2500   124.8750    74.6250     3.1368     2.8474    13.8727
  676.0952      .0017      .4026     2.1640  -999.2500   126.2500    72.3750     3.2080     2.8529    13.6629
  676.2476      .0048      .3886     2.1768  -999.2500   126.8125    75.3750     3.2291     2.8365    13.6074
  676.4000      .0059      .4008     2.1946  -999.2500   127.4375    73.3750     3.2075     2.7978    13.6767
  676.5524      .0040      .3895     2.2111  -999.2500   128.7500    72.5000     3.1887     2.8005    13.7985
  676.7048      .0036      .3961     2.2202  -999.2500   129.0000    71.2500     3.1775     2.8271    13.9343
  676.8572      .0056      .3803     2.2249  -999.2500   128.3750    75.7500     3.1088     2.8365    14.0485
  677.0096      .0068      .3929     2.2265  -999.2500   129.0000    79.0625     3.0289     2.8419    14.1824
  677.1620      .0064      .3815     2.2279  -999.2500   130.6250    82.5625     2.9912     2.8271    14.3985
  677.3144      .0062      .3845     2.2338  -999.2500   130.1250    73.9375     2.9588     2.8005    14.6178
  677.4668      .0021      .3983     2.2300  -999.2500   130.2500    71.7500     2.9544     2.7717    14.7805
  677.6192     -.0007      .4165     2.2248  -999.2500   130.8750    68.5000     2.9484     2.7461    14.9209
  677.7716     -.0011      .4165     2.2207  -999.2500   131.3750    71.7500     2.9539     2.7449    14.9858
  677.9240     -.0018      .4166     2.2226  -999.2500   130.1250    70.9375     2.9428     2.7424    14.9922
  678.0764     -.0038      .4216     2.2224  -999.2500   129.2500    66.5625     2.9118     2.7424    14.9922
  678.2288     -.0047      .4332     2.2203  -999.2500   130.3750    69.2500     2.8884     2.7398    14.9922
  678.3812     -.0071      .4389     2.2161  -999.2500   130.6250    71.6250     2.8666     2.7148    14.9922
  678.5336     -.0092      .4395     2.2114  -999.2500   131.5000    77.5625     2.8349     2.6818    14.9922
  678.6860     -.0072      .4270     2.2106  -999.2500   132.5000    78.0000     2.8169     2.6366    14.9922
  678.8384     -.0071      .4191     2.2041  -999.2500   131.7500    78.3750     2.8002     2.5772    14.9922
  678.9908     -.0027      .4050     2.2037  -999.2500   132.1250    80.5000     2.7793     2.5550    14.9752
  679.1432     -.0010      .4388     2.2076  -999.2500   132.6250    75.8750     2.7762     2.5517    14.8450
  679.2956     -.0024      .4623     2.2081  -999.2500   131.3750    76.0000     2.7695     2.5649    14.8281
  679.4480     -.0025      .4881     2.2101  -999.2500   131.3750    73.1875     2.7625     2.6307    14.8136
  679.6004      .0004      .4746     2.2106  -999.2500   131.2500    73.4375     2.7430     2.7025    14.6988
  679.7528     -.0044      .4244     2.2077  -999.2500   133.5000    72.8125     2.7273     2.7756    14.6595
  679.9052     -.0068      .4123     2.1994  -999.2500   137.0000    71.6250     2.7219     2.8124    14.6562
  680.0576     -.0047      .4052     2.1963  -999.2500   135.1250    76.6250     2.7293     2.7000    14.6522
  680.2100     -.0062      .4425     2.1873  -999.2500   135.3750    79.5000     2.7338     2.5895    14.6083
  680.3624     -.0074      .4411     2.1813  -999.2500   135.0000    82.0000     2.7054     2.5055    14.4994
  680.5148     -.0062      .4675     2.1812  -999.2500   134.0000    78.6875     2.6649     2.4681    14.4270
  680.6672     -.0048      .4774     2.1822  -999.2500   133.0000    72.2500     2.6245     2.4722    14.2974
  680.8196     -.0050      .4739     2.1883  -999.2500   131.5000    69.3750     2.5891     2.4950    14.2796
  680.9720     -.0069      .4400     2.1922  -999.2500   131.3750    67.3750     2.5754     2.5539    14.2729
  681.1244     -.0098      .4357     2.1989  -999.2500   132.0000    73.1875     2.5723     2.6745    14.3147
  681.2768     -.0086      .4611     2.2012  -999.2500   132.6250    75.8125     2.5502     2.7449    14.3203
  681.4292     -.0066      .5065     2.2002  -999.2500   133.6250    76.8750     2.5636     2.7049    14.3203
  681.5816     -.0072      .4640     2.1983  -999.2500   133.6250    71.0000     2.5873     2.6180    14.3203
  681.7340     -.0049      .4133     2.2051  -999.2500   131.8750    65.6875     2.6048     2.5430    14.3203
  681.8864     -.0005      .3524     2.2129  -999.2500   131.5000    65.8125     2.6320     2.5528    14.3187
  682.0388     -.0028      .3926     2.2108  -999.2500   129.7500    66.2500     2.6512     2.6319    14.2966
  682.1912     -.0078      .4059     2.2036  -999.2500   129.1250    70.1250     2.6712     2.7360    14.2117
  682.3436     -.0101      .4184     2.2061  -999.2500   129.0000    69.3750     2.7022     2.8124    14.1113
  682.4960     -.0090      .3919     2.2100  -999.2500   128.8750    72.7500     2.7532     2.8819    13.9256
  682.6484     -.0116      .3904     2.2122  -999.2500   130.3750    71.5625     2.7973     2.9244    13.8573
  682.8008     -.0108      .3971     2.2134  -999.2500   130.5000    74.8125     2.8271     2.9016    13.6703
  682.9532     -.0095      .3930     2.2130  -999.2500   130.0000    71.8750     2.8674     2.8284    13.4539
  683.1056     -.0077      .3828     2.2127  -999.2500   131.2500    73.5000     2.8676     2.7782    13.2535
  683.2580     -.0102      .3654     2.2065  -999.2500   131.5000    73.8750     2.8395     2.7512    13.1527
  683.4104     -.0073      .3724     2.2068  -999.2500   130.1250    70.5625     2.8101     2.7436    13.1546
  683.5628     -.0048      .3676     2.2148  -999.2500   129.7500    66.7500     2.7867     2.7653    13.1563
  683.7152     -.0024      .4022     2.2190  -999.2500   129.6250    66.8750     2.7565     2.8044    13.1691
  683.8676     -.0016      .4322     2.2211  -999.2500   130.3750    73.7500     2.7352     2.8474    13.2732
  684.0200     -.0019      .4405     2.2124  -999.2500   131.3750    72.1250     2.7409     2.8097    13.3370
  684.1724     -.0041      .4230     2.2101  -999.2500   132.1250    72.3125     2.7354     2.7627    13.4505
  684.3248     -.0064      .3923     2.2083  -999.2500   132.1250    70.1250     2.7412     2.7640    13.5026
  684.4772     -.0104      .4029     2.2078  -999.2500   131.1250    73.9375     2.7556     2.7730    13.6153
  684.6296     -.0137      .3887     2.2039  -999.2500   131.3750    68.7500     2.7546     2.7653    13.6729
  684.7820     -.0153      .3681     2.2079  -999.2500   130.0000    68.1875     2.7515     2.7602    13.7802
  684.9344     -.0173      .3822     2.2058  -999.2500   130.8750    68.8125     2.7657     2.7834    13.8305
  685.0868     -.0177      .4126     2.2088  -999.2500   131.5000    70.0625     2.7870     2.8018    13.8955
  685.2392     -.0151      .4513     2.2107  -999.2500   132.3750    69.9375     2.8041     2.7926    13.9992
  685.3916     -.0132      .4291     2.2220  -999.2500   132.2500    72.0625     2.8437     2.7602    14.0976
  685.5440     -.0080      .3900     2.2635  -999.2500   131.8750    72.6875     2.8758     2.7248    14.1633
  685.6964     -.0006      .3990     2.3256  -999.2500   131.1250    71.8125     2.8653     2.7602    14.2236
  685.8488      .0025      .4053     2.3490  -999.2500   131.1250    74.0000     2.8403     2.8694    14.3099
  686.0012     -.0021      .4239     2.3070  -999.2500   130.6250    77.2500     2.8126     2.9388    14.3203
  686.1536     -.0073      .4120     2.2439  -999.2500   131.2500    81.9375     2.7931     2.8945    14.3203
  686.3060     -.0098      .4337     2.2161  -999.2500   131.5000    79.8750     2.7935     2.8005    14.3203
  686.4584     -.0095      .4337     2.2125  -999.2500   131.7500    78.8125     2.7911     2.7474    14.3203
  686.6108     -.0089      .4343     2.2097  -999.2500   132.2500    73.9375     2.7742     2.7449    14.3203
  686.7632     -.0093      .4056     2.2031  -999.2500   131.5000    76.9375     2.7537     2.7512    14.3187
  686.9156     -.0076      .3952     2.2005  -999.2500   132.1250    77.1875     2.7302     2.7398    14.2966
