~VERSION INFORMATION
VERS.                                                 2.0:   CWLS Log ASCII Standard-VERSION 2.0
WRAP.                                                  NO:   One line per depth step
~Well Information Block
STRT.M                                           342.1868:   Top Depth
STOP.M                                          2635.3496:   Bottom Depth
STEP.M                                             .15240:   Depth Increment
NULL.                                            -999.250:   Null Value
FLD .                                              A NAME:   Field Name
WELL.                                             WELL A:   NAME
WBN .                                             WELL A:   WELLBORE
NATI.                                                 NOR:   COUNTRY
CTRY.                                                 NOR:   COUNTRY
COMP.                               	     COMPANY NAME:   OPERATOR
PROV.                                           SOMEWHERE:   PROVINCE
COUN.                                                 RIG:   RIG NAME
SPUD.                                          1970/01/01:   SPUD DATE
LATI.                                       00 00 00.00 N:   SURF. LATITUDE
LONG.                                       00 00 00.00 E:   SURF. LONGITUDE
PBWE.                                              WELL A:   PB WELL ID
PBWB.                                              WELL A:   PB WELLBORE ID
PBWS.                                                 all:   PB WELL NAME SET
~PARAMETER INFORMATION (log)
LNAM.                                           COMPOSITE:   NAME
LTYP.                                         DEPTH MATCH:   LOG TYPE
LSRV.                                              HYBRID:   LOG SERVICE
LSOU.                                                  OD:   LOG SOURCE
LVSN.                                                   1:   LOG VERSION
BHIS.                                                   R:   BRIEF HISTORY
FHIS.                                             RAW-LIS:   FULL HISTORY
LCNM.                                                EXLO:   LOGGING CONTRACTOR
TOOL.                             DIL/BHC/GR (COMPOSITED):   TOOL STRING
QCRM.                                           HQLD data:   QC COMMENT
QCCD.                                                high:   QC LEVEL
QCCO.                                               SIMON:   QC COMPANY
QCST.                                               final:   QC STATUS
~Curve Information Block
#MNEM.UNIT                                        API CODE    No Description
#=========                                        ========    == ===========
DEPT.M                                       00 001 00 00:     1  DEPTH
HDRHO.G/CC                                               :     2  Nuclear Radiation
HNPHI.FRAC                                               :     3  Nuclear Radiation
HRHOB.G/CC                                               :     4  Nuclear Radiation
HRS.OHMM                                                 :     5  Electromagnetic Response
HDT.US/F                                                 :     6  Acoustic Response
HGR.GAPI                                                 :     7  Nuclear Radiation
HRD.OHMM                                                 :     8  Electromagnetic Response
HRM.OHMM                                                 :     9  Electromagnetic Response
HCALI.IN                                                 :    10  Formation Evaluation
~ASCII
# ...
 2622.8528      .0924      .1741     2.5176     1.2432    71.6626    80.5853     9.2971    12.2161     5.1953
 2623.0052      .0938      .1773     2.5228     1.2439    71.7560    80.0669     9.2536    12.1234     5.1953
 2623.1576      .0983      .1789     2.5281     1.2456    71.6812    79.5370     9.2310    12.4520     5.1953
 2623.3100      .0982      .1813     2.5321     1.2447    71.7125    80.7007     9.2356    12.7523     5.1953
 2623.4624      .1055      .1850     2.5359     1.2441    71.7062    77.5670     9.2476    13.0545     5.1953
 2623.6148      .1135      .1868     2.5468     1.2427    71.6875    75.5873     9.2348    13.2736     5.1953
 2623.7672      .1140      .1817     2.5466     1.2415    71.7751    77.8903     9.2066    13.0492     5.1953
 2623.9196      .1129      .1756     2.5480     1.2376    71.8563    80.2506     9.3436    12.2269     5.1953
 2624.0720      .1160      .1688     2.5492     1.2356    71.7437    79.8495     9.4556    11.7817     5.1953
 2624.2244      .1108      .1707     2.5427     1.2339    71.6875    78.0368     9.5344    11.7359     5.1953
 2624.3768      .1045      .1736     2.5391     1.2291    71.6875    77.9193     9.6840    12.1392     5.1953
 2624.5292      .1031      .1812     2.5448     1.2268    71.6875    79.5694     9.8392    13.0203     5.1953
 2624.6816      .0994      .1837     2.5533     1.2216    71.6875    77.4300    10.0366    14.0459     5.1953
 2624.8340      .0942      .1912     2.5553     1.2212    71.6875    77.9106    10.2569    14.8217     5.1957
 2624.9864      .0938      .1985     2.5506     1.2210    71.6875    80.3281    10.3825    15.1266     5.1985
 2625.1388      .0857      .2036     2.5334     1.2171    71.6875    84.0389    10.3660    15.3587     5.1956
 2625.2912      .0816      .2039     2.5193     1.2165    71.6875    83.3460    10.2362    15.3312     5.1953
 2625.4436      .0796      .2016     2.5149     1.2089    71.6875    78.2204    10.0321    14.7296     5.1953
 2625.5960      .0805      .1966     2.5082     1.2075    71.6875    77.4667     9.7939    13.4202     5.1813
 2625.7484      .0782      .1921     2.4970     1.2044    71.6875    79.9072     9.5942    12.2514     5.0685
 2625.9008      .0838      .1874     2.4963     1.2003    71.6875    82.9350     9.3877    11.5017     5.0299
 2626.0532      .0820      .1897     2.4962     1.1992    71.6875    84.7921     9.2822    11.3534     5.0273
 2626.2056      .0796      .1910     2.5044     1.1942    71.6875    85.8425     9.2885    11.7265     5.0273
 2626.3580      .0756      .1949     2.5144     1.1874    71.6875    88.1822     9.2595    12.3564     5.0273
 2626.5104      .0722      .2031     2.5200     1.1805    71.6875    89.0625     9.2581    13.0959     5.0273
 2626.6628      .0665      .2088     2.5182      .8901    71.6875    89.0625     9.3171    13.7712     5.0273
 2626.8152      .0642      .2069     2.5197      .7006    71.6875    89.0625     9.4142    13.7236     5.0273
 2626.9676      .0708      .2022     2.5303      .6699    71.6875    89.0625     9.5604    13.1392     5.0273
 2627.1200      .0760      .1970     2.5398      .6699    71.6875    89.0625     9.6611    12.7812     5.0273
 2627.2724      .0702      .1982     2.5350      .6699    71.6875    89.0625     9.7010    12.7727     5.0273
 2627.4248      .0668      .1988     2.5342      .6699    71.6875    89.0625     9.6255    12.9678     5.0273
 2627.5772      .0619      .1982     2.5322      .6699    71.6875    89.0625     9.5346    13.3419     5.0273
 2627.7296      .0550      .1933     2.5258      .6699    71.6875    89.0625     9.5364    13.7488     5.0273
 2627.8820      .0486      .1869     2.5175      .6699    71.6875    89.0625     9.5137    13.8455     5.0273
 2628.0344      .0483      .1828     2.5122      .6699    71.6875    89.0625     9.4677    13.6223     5.0273
 2628.1868      .0524      .1816     2.5155      .6699    71.6875    89.0625     9.4576    12.9979     5.0273
 2628.3392      .0557      .1832     2.5213      .6699    71.6875    89.0625     9.4978    13.0189     5.0273
 2628.4916      .0588      .1886     2.5277      .6699    71.6875    89.0625     9.5125    12.6761     5.0273
 2628.6440      .0577      .1935     2.5245      .6699    71.6875    89.0625     9.5145    11.5890     5.0273
 2628.7964      .0563      .1939     2.5164      .6699    71.6875    89.0625     9.4983    12.1188     5.0273
 2628.9488      .0513      .1910     2.5099      .6699    71.6875    89.0625     9.4856    13.0594     5.0273
 2629.1012      .0550      .1876     2.5208      .6699    71.6875    89.0625     9.4688    12.7630     5.0273
 2629.2536      .0569      .1858     2.5277      .6699    71.6875    89.0625     9.4818    12.4992     5.0273
 2629.4060      .0568      .1888     2.5313      .6699    71.6875    89.0625     9.4582    12.5557     5.0273
 2629.5584      .0527      .1899     2.5197      .6699    71.6875    89.0625     9.4621    12.5683     5.0273
 2629.7108      .0521      .1879     2.5173      .6699    71.6875    89.0625     9.4833    12.5246     5.0273
 2629.8632      .0509      .1829     2.5135      .6699    71.6875    89.0625     9.4773    12.5093     5.0273
 2630.0156      .0556      .1824     2.5273      .6699    71.6875    89.0625     9.4597    12.4737     5.0273
 2630.1680      .0630      .1845     2.5444      .6699    71.6875    89.0625     9.5017    12.5120     5.0273
 2630.3204      .0711      .1839     2.5612      .6699    71.6875    89.0625     9.4517    12.4991     5.0273
 2630.4728      .0771      .1851     2.5680      .6699    71.6875    89.0625     9.4421    12.4661     5.0273
 2630.6252      .0802      .1817     2.5710      .6699    71.6875    89.0625     9.4779    12.4585     5.0273
 2630.7776      .0804      .1824     2.5712      .6699    71.6875    89.0625     9.4905    12.5120     5.0273
 2630.9300      .0804      .1822     2.5712      .6699    71.6875    89.0625     9.4924    12.4992     5.0273
 2631.0824      .0804      .1832     2.5712      .6699    71.6875    89.0625     9.4656    12.5196     5.0273
 2631.2348      .0804      .1845     2.5712      .6699    71.6875    89.0625     9.4658    12.5170     5.0273
 2631.3872      .0804      .1850     2.5712      .6699    71.6875    89.0625     9.5138    12.4915     5.0273
 2631.5396      .0804      .1869     2.5712      .6699    71.6875    89.0625     9.5042    12.5017     5.0273
 2631.6920      .0804      .1850     2.5712      .6699    71.6875    89.0625     9.4712    12.5273     5.0273
 2631.8444      .0804      .1841     2.5712      .6699    71.6875    89.0625     9.4628    12.4992     5.0273
 2631.9968      .0804      .1812     2.5712      .6699    71.6875    89.0625     9.4772    12.5017     5.0273
 2632.1492      .0804      .1801     2.5712      .6699    71.6875    89.0625     9.4812    12.4738     5.0273
 2632.3016      .0804      .1761     2.5712      .6699    71.6875    89.0625     9.4970    12.5300     5.0273
 2632.4540      .0804      .1757     2.5712  -999.2500    71.6875    89.0625     9.5032    12.5247     5.0273
 2632.6064      .0804      .1757     2.5712  -999.2500    71.6875    89.0625     9.4948    12.5093     5.0273
 2632.7588      .0804      .1757     2.5712  -999.2500    71.6875    89.0625     9.4845    12.5452     5.0273
 2632.9112      .0804      .1757     2.5712  -999.2500    71.6875    89.0625     9.4477    12.5248     5.0273
 2633.0636  -999.2500  -999.2500     2.5712  -999.2500    71.6875    89.0625     9.4547    12.5093  -999.2500
 2633.2160  -999.2500  -999.2500  -999.2500  -999.2500    71.6875    89.0625     9.4769    12.5452  -999.2500
 2633.3684  -999.2500  -999.2500  -999.2500  -999.2500    71.6875    89.0625     9.4738    12.5069  -999.2500
 2633.5208  -999.2500  -999.2500  -999.2500  -999.2500    71.6875    89.0625     9.4713    12.4309  -999.2500
 2633.6732  -999.2500  -999.2500  -999.2500  -999.2500    71.6875    89.0625     9.4728    12.4612  -999.2500
 2633.8256  -999.2500  -999.2500  -999.2500  -999.2500    71.6875    89.0625     9.4732    12.5196  -999.2500
