#----------------------------------------------------------------------------
~VERSION INFORMATION
VERS.            2.0                  :CWLS LOG ASCII STANDARD -VERSION 2.0
WRAP.            NO                   :ONE LINE PER DEPTH STEP
#
# Created by marten, at DESKTOP-7JFC02N, on 2020-03-17T21:40:57.014521, using version XXX
# NOTE: Some notes for well A
# Written to las on: 2020-03-17T21:52:46.162651
# Modified on: 2020-03-17T21:40:57.273821
#  Modification: sw: None, Test data generated from VCL
#--------------------------------------------------------------------
~WELL INFORMATION
#MNEM .UNIT      DATA                 :DESCRIPTION OF MNEMONIC
#----------      ------------         -------------------------------
STRT   .m        295.0                :START DEPTH
STOP   .m        2636.1688            :STOP DEPTH
STEP   .m        0.1524               :STEP DEPTH
WELL   .         Well_F               :WELL
NULL   .         -999.25              :NULL VALUE
COMP   .                              :COMPANY
WELL   .         Well_F               :WELL
LOC    .         Norway               :LOCATION - AREA
FLD    .                              :FIELD
CTRY   .         nor                  :COUNTRY
DATE   .                              :WELL DATE
XWELL  .m        0                    :X POS
YWELL  .m        0                    :Y POS
EDF    .         24.0                 :DERRICK FLOOR ELEVATION
#
# ----------------------------------------------------------------------------
~CURVE INFORMATION
# MNEM.UNIT                                         : CURVE DESCRIPTION
# ----------                                        -------------------------------
DEPTH               .m                                : 1        DEPTH
VP_DRY              .m/s                              : 2        Vp
VP_SG08             .m/s                              : 3        Vp
VP_SO08             .m/s                              : 4        Vp
VS_DRY              .m/s                              : 5        Vs
VS_SG08             .m/s                              : 6        Vs
VS_SO08             .m/s                              : 7        Vs
RHO_DRY             .g/cm3                            : 8        Rho
RHO_SG08            .g/cm3                            : 9        Rho
RHO_SO08            .g/cm3                            : 10       Rho
PHIE                .fract                            : 11       Por
VCL                 .fract                            : 12       Volume
SW                  .fract                            : 13       Fake water saturation
#
# ----------------------------------------------------------------------------
~A                  VP_DRY              VP_SG08             VP_SO08             VS_DRY              VS_SG08             VS_SO08             RHO_DRY             RHO_SG08            RHO_SO08            PHIE                VCL                 SW                  
# ...
521.7712            2159.3063           2159.3063           2159.3063           880.5478            880.5478            880.5478            2.0909              2.0909              2.0909              -999.25             0.9819              1.0                 
521.9236            2133.0892           2133.0892           2133.0892           859.465             859.465             859.465             2.0747              2.0747              2.0747              -999.25             0.9948              1.0                 
522.076             2098.0004           2098.0004           2098.0004           831.248             831.248             831.248             2.0588              2.0588              2.0588              -999.25             1.0                 1.0                 
522.2284            2092.5989           2092.5989           2092.5989           826.9043            826.9043            826.9043            2.0561              2.0561              2.0561              -999.25             1.0                 1.0                 
522.3808            2094.1694           2094.1694           2094.1694           828.1673            828.1673            828.1673            2.0721              2.0721              2.0721              -999.25             1.0                 1.0                 
522.5332            2105.2489           2105.2489           2105.2489           837.0769            837.0769            837.0769            2.081               2.081               2.081               -999.25             1.0                 1.0                 
522.6856            2120.3449           2120.3449           2120.3449           849.2165            849.2165            849.2165            2.0786              2.0786              2.0786              -999.25             1.0                 1.0                 
522.838             2112.5413           2112.5413           2112.5413           842.9412            842.9412            842.9412            2.0756              2.0756              2.0756              -999.25             1.0                 1.0                 
522.9904            2118.2756           2118.2756           2118.2756           847.5525            847.5525            847.5525            2.0721              2.0721              2.0721              -999.25             1.0                 1.0                 
523.1428            2124.0418           2124.0418           2124.0418           852.1895            852.1895            852.1895            2.066               2.066               2.066               -999.25             0.9879              1.0                 
523.2952            2118.5019           2118.5019           2118.5019           847.7345            847.7345            847.7345            2.0555              2.0555              2.0555              -999.25             0.9965              1.0                 
523.4476            2110.0286           2110.0286           2110.0286           840.9206            840.9206            840.9206            2.0517              2.0517              2.0517              -999.25             1.0                 1.0                 
523.6               2107.7451           2107.7451           2107.7451           839.0843            839.0843            839.0843            2.0535              2.0535              2.0535              -999.25             1.0                 1.0                 
523.7524            2097.3238           2097.3238           2097.3238           830.7039            830.7039            830.7039            2.0542              2.0542              2.0542              -999.25             1.0                 1.0                 
523.9048            2086.109            2086.109            2086.109            821.6854            821.6854            821.6854            2.051               2.051               2.051               -999.25             1.0                 1.0                 
524.0572            2080.5468           2080.5468           2080.5468           817.2125            817.2125            817.2125            2.0457              2.0457              2.0457              -999.25             1.0                 1.0                 
524.2096            2079.2154           2079.2154           2079.2154           816.1419            816.1419            816.1419            2.0445              2.0445              2.0445              -999.25             1.0                 1.0                 
524.362             2076.3391           2076.3391           2076.3391           813.8288            813.8288            813.8288            2.0451              2.0451              2.0451              -999.25             1.0                 1.0                 
524.5144            2073.248            2073.248            2073.248            811.3431            811.3431            811.3431            2.0458              2.0458              2.0458              -999.25             1.0                 1.0                 
524.6668            2073.2508           2073.2508           2073.2508           811.3453            811.3453            811.3453            2.0488              2.0488              2.0488              -999.25             1.0                 1.0                 
524.8192            2082.1005           2082.1005           2082.1005           818.4619            818.4619            818.4619            2.0454              2.0454              2.0454              -999.25             1.0                 1.0                 
524.9716            2086.3297           2086.3297           2086.3297           821.8629            821.8629            821.8629            2.046               2.046               2.046               -999.25             1.0                 1.0                 
525.124             2089.4686           2089.4686           2089.4686           824.3871            824.3871            824.3871            2.0499              2.0499              2.0499              -999.25             1.0                 1.0                 
525.2764            2099.8083           2099.8083           2099.8083           832.7018            832.7018            832.7018            2.051               2.051               2.051               -999.25             1.0                 1.0                 
525.4288            2100.0298           2100.0298           2100.0298           832.8799            832.8799            832.8799            2.0518              2.0518              2.0518              -999.25             1.0                 1.0                 
525.5812            2095.9704           2095.9704           2095.9704           829.6156            829.6156            829.6156            2.0597              2.0597              2.0597              -999.25             1.0                 1.0                 
525.7336            2096.1967           2096.1967           2096.1967           829.7976            829.7976            829.7976            2.0669              2.0669              2.0669              -999.25             1.0                 1.0                 
525.886             2093.0459           2093.0459           2093.0459           827.2638            827.2638            827.2638            2.0676              2.0676              2.0676              -999.25             1.0                 1.0                 
526.0384            2081.4347           2081.4347           2081.4347           817.9265            817.9265            817.9265            2.0597              2.0597              2.0597              -999.25             1.0                 1.0                 
526.1908            2077.0017           2077.0017           2077.0017           814.3617            814.3617            814.3617            2.0514              2.0514              2.0514              -999.25             1.0                 1.0                 
526.3432            2079.6591           2079.6591           2079.6591           816.4987            816.4987            816.4987            2.0485              2.0485              2.0485              -999.25             1.0                 1.0                 
