~VERSION INFORMATION
VERS.                                                 2.0:   CWLS Log ASCII Standard-VERSION 2.0
WRAP.                                                  NO:   One line per depth step
~Well Information Block
STRT.M                                           342.1868:   Top Depth
STOP.M                                          2635.3496:   Bottom Depth
STEP.M                                             .15240:   Depth Increment
NULL.                                            -999.250:   Null Value
FLD .                                              A NAME:   Field Name
WELL.                                             WELL A:   NAME
WBN .                                             WELL A:   WELLBORE
NATI.                                                 NOR:   COUNTRY
CTRY.                                                 NOR:   COUNTRY
COMP.                               	     COMPANY NAME:   OPERATOR
PROV.                                           SOMEWHERE:   PROVINCE
COUN.                                                 RIG:   RIG NAME
SPUD.                                          1970/01/01:   SPUD DATE
LATI.                                       00 00 00.00 N:   SURF. LATITUDE
LONG.                                       00 00 00.00 E:   SURF. LONGITUDE
PBWE.                                              WELL A:   PB WELL ID
PBWB.                                              WELL A:   PB WELLBORE ID
PBWS.                                                 all:   PB WELL NAME SET
~PARAMETER INFORMATION (log)
LNAM.                                           COMPOSITE:   NAME
LTYP.                                         DEPTH MATCH:   LOG TYPE
LSRV.                                              HYBRID:   LOG SERVICE
LSOU.                                                  OD:   LOG SOURCE
LVSN.                                                   1:   LOG VERSION
BHIS.                                                   R:   BRIEF HISTORY
FHIS.                                             RAW-LIS:   FULL HISTORY
LCNM.                                                EXLO:   LOGGING CONTRACTOR
TOOL.                             DIL/BHC/GR (COMPOSITED):   TOOL STRING
QCRM.                                           HQLD data:   QC COMMENT
QCCD.                                                high:   QC LEVEL
QCCO.                                               SIMON:   QC COMPANY
QCST.                                               final:   QC STATUS
~Curve Information Block
#MNEM.UNIT                                        API CODE    No Description
#=========                                        ========    == ===========
DEPT.M                                       00 001 00 00:     1  DEPTH
HDRHO.G/CC                                               :     2  Nuclear Radiation
HNPHI.FRAC                                               :     3  Nuclear Radiation
HRHOB.G/CC                                               :     4  Nuclear Radiation
HRS.OHMM                                                 :     5  Electromagnetic Response
HDT.US/F                                                 :     6  Acoustic Response
HGR.GAPI                                                 :     7  Nuclear Radiation
HRD.OHMM                                                 :     8  Electromagnetic Response
HRM.OHMM                                                 :     9  Electromagnetic Response
HCALI.IN                                                 :    10  Formation Evaluation
~ASCII
# ...
 1120.9508     -.0098      .3366     2.3569  -999.2500   113.0000    73.3750     2.3475     2.8217    12.4612
 1121.1032     -.0108      .3201     2.3576  -999.2500   113.1250    67.6875     2.3337     2.8311    12.4882
 1121.2556     -.0142      .3031     2.3520  -999.2500   113.1875    62.9063     2.3408     2.7614    12.4890
 1121.4080     -.0185      .3116     2.3426  -999.2500   113.8125    58.2812     2.3330     2.6878    12.4601
 1121.5604     -.0181      .3113     2.3399  -999.2500   111.8125    64.3125     2.3419     2.6146    12.4332
 1121.7128     -.0170      .3249     2.3587  -999.2500   108.3125    70.4375     2.3561     2.5895    12.4850
 1121.8652     -.0141      .3162     2.3824  -999.2500   108.6875    71.7500     2.3493     2.6542    12.4922
 1122.0176     -.0108      .3213     2.3716  -999.2500   107.6875    70.1250     2.3485     2.7210    12.4922
 1122.1700     -.0097      .3126     2.3483  -999.2500   106.6250    69.4375     2.3635     2.7000    12.4922
 1122.3224     -.0125      .3075     2.3244  -999.2500   111.3125    70.3750     2.3777     2.6192    12.4922
 1122.4748     -.0089      .3070     2.3423  -999.2500   111.3750    78.2500     2.3898     2.6448    12.4922
 1122.6272     -.0101      .3160     2.3436  -999.2500   111.7500    78.8125     2.4037     2.7285    12.4906
 1122.7796     -.0112      .3319     2.3378  -999.2500   112.2500    77.8750     2.4115     2.7692    12.4766
 1122.9320     -.0132      .3295     2.3298  -999.2500   112.4375    76.1250     2.4170     2.7640    12.4641
 1123.0844     -.0124      .3134     2.3361  -999.2500   113.3125    72.8750     2.4231     2.7551    12.4749
 1123.2368     -.0106      .3068     2.3501  -999.2500   113.1250    71.5000     2.4214     2.7373    12.4766
 1123.3892     -.0066      .3076     2.3580  -999.2500   112.8750    65.7500     2.4240     2.7360    12.4766
 1123.5416     -.0074      .3113     2.3541  -999.2500   112.6875    72.1875     2.4175     2.7323    12.4782
 1123.6940     -.0068      .3030     2.3536  -999.2500   111.8750    73.5625     2.4127     2.7461    12.4906
 1123.8464     -.0073      .3046     2.3568  -999.2500   111.9375    75.6875     2.4061     2.7487    12.4922
 1123.9988     -.0069      .3075     2.3604  -999.2500   112.7500    78.3125     2.3907     2.7614    12.4906
 1124.1512     -.0065      .3118     2.3593  -999.2500   113.8125    78.1250     2.3856     2.7965    12.4798
 1124.3036     -.0055      .3099     2.3554  -999.2500   113.3125    81.8125     2.3721     2.7808    12.4890
 1124.4560     -.0082      .3009     2.3550  -999.2500   114.3750    76.8750     2.3440     2.7298    12.4758
 1124.6084     -.0084      .3198     2.3545  -999.2500   115.0000    75.5000     2.3207     2.6673    12.4596
 1124.7608     -.0092      .3348     2.3464  -999.2500   114.6875    70.5625     2.3040     2.6424    12.4865
 1124.9132     -.0113      .3394     2.3346  -999.2500   115.2500    68.5000     2.2738     2.6111    12.4798
 1125.0656     -.0167      .3306     2.3176  -999.2500   114.5625    66.4375     2.2529     2.6134    12.4906
 1125.2180     -.0154      .3235     2.3143  -999.2500   114.5000    66.0625     2.2349     2.6100    12.4922
 1125.3704     -.0157      .3389     2.3110  -999.2500   114.5000    66.5625     2.2206     2.5906    12.4922
 1125.5228     -.0139      .3137     2.3179  -999.2500   114.3750    64.6875     2.2117     2.5638    12.4857
 1125.6752     -.0125      .2846     2.3256  -999.2500   113.9375    65.3125     2.2206     2.5727    12.4426
 1125.8276     -.0093      .2566     2.3368  -999.2500   113.8125    62.9375     2.2176     2.6226    12.4857
 1125.9800     -.0109      .2690     2.3396  -999.2500   114.0625    63.7813     2.2260     2.6261    12.4906
 1126.1324     -.0090      .3011     2.3473  -999.2500   113.8125    64.5625     2.2429     2.6307    12.4782
 1126.2848     -.0103      .3252     2.3468  -999.2500   113.2500    63.2500     2.2587     2.6054    12.4766
 1126.4372     -.0115      .3417     2.3494  -999.2500   113.6875    64.8750     2.2697     2.6203    12.4782
 1126.5896     -.0103      .3321     2.3488  -999.2500   111.8750    62.7500     2.2898     2.6111    12.4906
 1126.7420     -.0104      .3186     2.3552  -999.2500   108.9375    64.8125     2.2975     2.6878    12.4922
 1126.8944     -.0119      .2835     2.3607  -999.2500   109.2500    62.9063     2.2943     2.7360    12.4882
 1127.0468     -.0144      .2787     2.3617  -999.2500   109.1250    64.6875     2.2942     2.7717    12.4596
 1127.1992     -.0199      .2839     2.3475  -999.2500   111.4375    66.3125     2.3011     2.6878    12.4758
 1127.3516     -.0268      .3032     2.3289  -999.2500   114.0000    68.8750     2.2974     2.6377    12.4906
 1127.5040     -.0272      .3150     2.3266  -999.2500   114.1875    67.1250     2.2925     2.6077    12.4906
 1127.6564     -.0252      .3200     2.3265  -999.2500   114.6250    71.3125     2.2781     2.6238    12.4798
 1127.8088     -.0248      .3251     2.3299  -999.2500   115.5625    71.3750     2.2658     2.6054    12.4890
 1127.9612     -.0211      .3195     2.3336  -999.2500   115.1250    75.9375     2.2583     2.5873    12.4782
 1128.1136     -.0162      .3156     2.3431  -999.2500   113.6875    70.6875     2.2500     2.5816    12.4782
 1128.2660     -.0135      .3052     2.3677  -999.2500   111.1250    66.8750     2.2373     2.5974    12.4890
 1128.4184     -.0085      .2985     2.4007  -999.2500   111.5625    66.0000     2.2197     2.6377    12.4798
 1128.5708     -.0003      .3031     2.4191  -999.2500   112.0625    63.5000     2.2035     2.6673    12.4906
 1128.7232      .0001      .3165     2.3883  -999.2500   113.7500    68.8750     2.1955     2.6054    12.4922
 1128.8756     -.0017      .3303     2.3612  -999.2500   116.8750    63.9375     2.1938     2.4940    12.4922
 1129.0280      .0002      .3421     2.3765  -999.2500   114.2500    66.1250     2.1887     2.3897    12.4922
 1129.1804     -.0007      .3479     2.4054  -999.2500   114.1250    64.6875     2.1724     2.3783    12.4922
 1129.3328     -.0032      .3442     2.4116  -999.2500   114.4375    67.1875     2.1536     2.4397    12.4922
 1129.4852     -.0082      .3211     2.3707  -999.2500   114.6250    72.4375     2.1548     2.4971    12.4922
 1129.6376     -.0119      .3101     2.3238  -999.2500   116.5625    72.1875     2.1588     2.4437    12.4922
 1129.7900     -.0135      .3187     2.2962  -999.2500   118.0000    69.0000     2.1736     2.3984    12.4922
 1129.9424     -.0114      .3234     2.2933  -999.2500   116.6875    67.1875     2.1874     2.3650    12.4922
 1130.0948     -.0096      .3137     2.3007  -999.2500   116.0000    68.1250     2.1976     2.4298    12.4922
 1130.2472     -.0047      .2937     2.3123  -999.2500   115.5000    69.0625     2.2098     2.5214    12.4922
 1130.3996      .0012      .2958     2.3212  -999.2500   115.2500    69.3750     2.2138     2.5506    12.4922
 1130.5520      .0061      .3074     2.3305  -999.2500   115.4375    69.9375     2.2251     2.5616    12.4922
 1130.7044      .0072      .3112     2.3339  -999.2500   115.5000    71.7500     2.2341     2.5738    12.4922
 1130.8568      .0055      .3131     2.3344  -999.2500   115.0000    68.9375     2.2494     2.5963    12.4922
 1131.0092     -.0015      .3080     2.3305  -999.2500   115.0000    77.1250     2.2545     2.6054    12.4922
 1131.1616     -.0096      .3048     2.3212  -999.2500   114.8750    78.8125     2.2645     2.5850    12.4922
 1131.3140     -.0154      .3118     2.3142  -999.2500   114.6250    80.8750     2.2759     2.5594    12.4922
 1131.4664     -.0199      .3019     2.3090  -999.2500   113.9375    70.5000     2.2937     2.5705    12.4922
 1131.6188     -.0220      .2961     2.3126  -999.2500   113.6250    71.3125     2.2961     2.6331    12.4922
 1131.7712     -.0231      .2844     2.3105  -999.2500   113.1875    70.3750     2.2958     2.6963    12.4922
 1131.9236     -.0234      .2904     2.3102  -999.2500   113.8750    76.8125     2.2906     2.7260    12.4922
