~Version
 VERS              .         3.0                           : CWLS LOG ASCII STANDARD - VERSION 3.0
 WRAP              .         NO                            : ONE LINE PER DEPTH STEP
 DLM               .         SPACE                         : DELIMITING CHARACTER(SPACE TAB OR COMMA)
~Well Information
#_______________________________________________________________________________
#
#PARAMETER_NAME    .UNIT     VALUE                         : DESCRIPTION
#_______________________________________________________________________________
STRT               .m        563.118                       : First reference value
STOP               .m        914.2476                      : Last reference value
STEP               .m        0.1524                        : Step increment
NULL               .         -9999                         : Missing value
COMP               .         SomeCompany                   : Company
WELL               .         Well_E                        : Well name
FLD                .                                       : Field
LOC                .                                       : Location
SRVC               .                                       : Service Company
CTRY               .         NO                            : Country
DATE               .                                       : Service Date
LATI               .deg      70.000000                     : Latitude
LONG               .deg      35.000000                     : Longitude
GDAT               .                                       : Geodetic Datum
Completion_date    .         2020-02-17                    : Completed date
COUNTRY            .         Norway                        : 
EREF               .m        25.0                          : Kelly bushing elevation
DREF               .m        MSL                           : 
HZCS               .         ED50-UTM35                    : UTM zone
LGWN               .         Well_E                        : Wellbore name
OPER               .         SomeCompany                   : Drilling operator group
SPDA               .         2020-02-17                    : Entered date
SHWN               .         Well_E                        : Well name
STAT               .         BARENTS SEA                   : Main area
TD                 .m        930.0                         : Total depth
UWI                .         Well_E                        : NPDID wellbore
Water_depth        .m        400.0                         : Water depth
X                  .m        400000.00                     : EW UTM
Y                  .m        8000000.00                    : NS UTM
~Parameter Information Block
#_______________________________________________________________________________
#
#PARAMETER_NAME    .UNIT     VALUE                         : DESCRIPTION
#_______________________________________________________________________________
SET                .         CPI                           : 
TLFamily_DEPTH     .         Measured Depth                : 
TLFamily_PHIE      .         Effective Porosity            : 
TLFamily_PHIT      .         Total Porosity                : 
TLFamily_SW        .         Water Saturation              : 
TLFamily_VSH       .         Shale Volume Fraction         : 
~Curve Information
#_______________________________________________________________________________
#
#LOGNAME           .UNIT     LOG_ID                        : DESCRIPTION
#_______________________________________________________________________________
DEPTH              .m                                      :  {F}
PHIE_test          .v/v                                    : Porosity {F}
PHIT_test          .v/v                                    : Porosity {F}
SW_test            .v/v                                    :  {F}
VSH_test           .v/v                                    : Vshale {F}
~Ascii
# ...
874.6236   0.01957898 0.0901674  1          0.5717661 
874.776    0.03122815 0.09943026 1          0.552437  
874.9284   0.03768025 0.1089327  1          0.5771447 
875.0808   0.06038862 0.1242779  1          0.5175029 
875.2332   0.08763618 0.1446772  1          0.4620325 
875.3856   0.09881793 0.1535186  1          0.4430752 
875.538    0.0507748  0.1303587  1          0.6446297 
875.6904   0          0.1029038  1          0.9680791 
875.8428   0          0.07919382 1          1         
875.9952   0          0.08448274 1          1         
876.1476   0          0.08576667 1          1         
876.3      0          0.09358149 1          0.8393331 
876.4524   0.01696769 0.09644384 1          0.6437567 
876.6048   0.02681715 0.09950192 1          0.5887465 
876.7572   0.02661207 0.1045624  1          0.6313978 
876.9096   0.02123556 0.1137741  1          0.7495618 
877.062    0.01646177 0.1241938  1          0.8726297 
877.2144   0.003524761 0.1269816  1          1         
877.3668   0.01483642 0.1340729  1          0.9658155 
877.5192   0.01123877 0.1314809  1          0.9739612 
877.6716   0.004358338 0.124979   1          0.9770273 
877.824    0          0.102779   1          1         
877.9764   0          0.08117475 1          0.9582456 
878.1288   0          0.06387468 1          0.9485385 
878.2812   0          0.04997165 1          0.9764514 
878.4336   0          0.04244395 1          0.9898651 
878.586    0          0.04237345 1          0.931937  
878.7384   0          0.04896617 1          0.9531116 
878.8908   0          0.0511321  1          1         
879.0432   0          0.05479698 1          1         
879.1956   0          0.06201605 1          1         
879.348    0          0.07914334 1          0.8512093 
879.5004   0          0.09054269 1          0.7402396 
879.6528   0.01633054 0.09355751 1          0.6255383 
879.8052   0.01248253 0.08690254 1          0.602802  
879.9576   0.001791222 0.07834949 1          0.6201219 
880.11     0          0.07206304 1          0.6399285 
880.2624   0          0.07427533 1          0.6214178 
880.4148   0          0.07535616 1          0.6457929 
880.5672   0.001011585 0.07753342 1          0.6198268 
880.7196   0          0.07666555 1          0.638912  
880.872    0          0.07462663 1          0.6354617 
881.0244   0          0.06738209 1          0.7914225 
881.1768   0          0.05676305 1          0.8788819 
881.3292   0          0.05339943 1          0.9841382 
881.4816   0          0.05942597 1          0.8924113 
881.634    0          0.06485618 1          0.789427  
881.7864   0          0.06806423 1          0.5900665 
881.9388   0.009129367 0.07463148 1          0.530567  
882.0912   0.006762837 0.08323339 1          0.6194114 
882.2436   0          0.08491056 1          0.748624  
882.396    0          0.07375935 1          0.9104664 
882.5484   0          0.06160809 1          0.7941903 
882.7008   0          0.05637098 1          0.7569835 
882.8532   0          0.05885436 1          0.6245925 
883.0056   0          0.06109019 1          0.6131181 
883.158    0          0.06536613 1          0.5618038 
883.3104   0.005395552 0.07602903 1          0.5721311 
883.4628   0.04767585 0.1024217  1          0.4434411 
883.6152   0.07960995 0.1285173  1          0.3961496 
883.7676   0.1117264  0.1494736  0.9519913  0.3057518 
883.92     0.1234556  0.1594174  0.8653082  0.2912908 
884.0724   0.1390207  0.1671346  0.8559999  0.227723  
884.2248   0.1455374  0.1722371  0.8817234  0.2162674 
884.3772   0.1427855  0.1733421  0.9972525  0.2475078 
884.5296   0.125176   0.1664415  1          0.3342501 
884.682    0.07867318 0.1422105  1          0.514652  
884.8344   0.02662149 0.1046013  1          0.6316363 
884.9868   0          0.07118148 1          0.8029932 
885.1392   0          0.05574697 1          0.8942987 
885.2916   0          0.05645869 1          0.9846725 
885.444    0          0.06705993 1          0.8984368 
885.5964   0          0.0804099  1          0.8520108 
885.7488   0.009467847 0.1008131  1          0.7398963 
885.9012   0.01639835 0.1074111  1          0.7372031 
886.0536   0.0138467  0.09929883 1          0.6921622 
886.206    0          0.08056987 1          0.7577447 
886.3584   0          0.06892416 1          0.8288831 
886.5108   0          0.06635439 1          0.8725235 
886.6632   0          0.06494507 1          0.8154068 
886.8156   0          0.0647458  1          0.8223847 
886.968    0          0.06724817 1          0.8273542 
887.1204   0          0.08027788 1          0.7919897 
887.2728   0.02447779 0.1016976  1          0.6254803 
887.4252   0.06066149 0.1240186  1          0.5131922 
887.5776   0.08022436 0.135895   1          0.4509325 
887.73     0.08195384 0.1363785  1          0.4408398 
887.8824   0.07923984 0.1349945  1          0.4516128 
888.0348   0.08323255 0.1362413  1          0.4293711 
888.1872   0.08404317 0.1402272  1          0.4550905 
888.3396   0.08464987 0.1419334  1          0.4639963 
888.492    0.07546159 0.1383981  1          0.509786  
888.6444   0.06415112 0.1245722  1          0.4894108 
888.7968   0.03305825 0.1022827  1          0.5607183 
888.9492   0          0.07444384 1          0.6869026 
889.1016   0          0.05608826 1          0.7934006 
889.254    0          0.04770932 1          0.9381418 
889.4064   0          0.05151739 1          0.9192374 
889.5588   0          0.05741546 1          0.8978579 
889.7112   0          0.05779325 1          0.8024877 
889.8636   0          0.05202234 1          0.8653299 
890.016    0          0.04905624 1          0.9972641 
890.1684   0          0.05627605 1          1         
890.3208   0          0.07405502 1          1         
890.4732   0          0.08850862 1          1         
890.6256   0          0.1021457  1          1         
890.778    0          0.1054488  1          0.9814288 
890.9304   0          0.101679   1          0.9191502 
891.0828   0          0.08473086 1          0.9179159 
891.2352   0          0.06773589 1          0.9006133 
891.3876   0          0.05651241 1          0.8420193 
891.54     0          0.0597056  1          0.7416817 
891.6924   0          0.06665742 1          0.6509587 
891.8448   0.004559305 0.07860807 1          0.5997949 
891.9972   0.01013394 0.08714566 1          0.6237949 
892.1496   0.03735834 0.1043526  1          0.5426531 
892.302    0.06753651 0.1206377  1          0.4301198 
892.4544   0.1008044  0.1374433  1          0.2967749 
892.6068   0.1124023  0.14861    1          0.2932817 
892.7592   0.1231425  0.1582612  1          0.2844616 
892.9116   0.1238009  0.1678155  1          0.3565178 
893.064    0.1294174  0.1728982  1          0.352194  
893.2164   0.1258076  0.1763457  1          0.4093585 
893.3688   0.1248219  0.1753901  1          0.4096023 
893.5212   0.1172328  0.1725359  1          0.4479545 
893.6736   0.11356    0.166034   1          0.4250386 
893.826    0.1126863  0.1639612  1          0.4153262 
893.9784   0.1198485  0.1693458  1          0.4009275 
894.1308   0.1279482  0.1736969  1          0.3705646 
894.2832   0.1274957  0.1727396  1          0.366475  
894.4356   0.1174913  0.168166   1          0.4104653 
894.588    0.1140677  0.1700155  1          0.4531771 
894.7404   0.1172721  0.1748001  1          0.4659767 
894.8928   0.1297048  0.1775075  1          0.3872015 
895.0452   0.1365373  0.1783272  1          0.3384986 
895.1976   0.1274305  0.1755352  1          0.3896482 
895.35     0.1277735  0.1735964  1          0.3711649 
895.5024   0.1285124  0.1699334  1          0.3355103 
895.6548   0.1263106  0.1643883  1          0.3084288 
895.8072   0.1145155  0.158192   1          0.35378   
895.9596   0.1047299  0.1520094  1          0.3829633 
896.112    0.1011763  0.1488291  1          0.3859875 
896.2644   0.1042017  0.1503969  1          0.3741814 
896.4168   0.1048534  0.1540359  1          0.3983784 
896.5692   0.1049827  0.1580272  1          0.4296606 
896.7216   0.08362588 0.1466371  1          0.510391  
