~Version
 VERS              .         3.0                           : CWLS LOG ASCII STANDARD - VERSION 3.0
 WRAP              .         NO                            : ONE LINE PER DEPTH STEP
 DLM               .         SPACE                         : DELIMITING CHARACTER(SPACE TAB OR COMMA)
~Well Information
#_______________________________________________________________________________
#
#PARAMETER_NAME    .UNIT     VALUE                         : DESCRIPTION
#_______________________________________________________________________________
STRT               .m        563.118                       : First reference value
STOP               .m        914.2476                      : Last reference value
STEP               .m        0.1524                        : Step increment
NULL               .         -9999                         : Missing value
COMP               .         SomeCompany                   : Company
WELL               .         Well_E                        : Well name
FLD                .                                       : Field
LOC                .                                       : Location
SRVC               .                                       : Service Company
CTRY               .         NO                            : Country
DATE               .                                       : Service Date
LATI               .deg      70.000000                     : Latitude
LONG               .deg      35.000000                     : Longitude
GDAT               .                                       : Geodetic Datum
Completion_date    .         2020-02-17                    : Completed date
COUNTRY            .         Norway                        : 
EREF               .m        25.0                          : Kelly bushing elevation
DREF               .m        MSL                           : 
HZCS               .         ED50-UTM35                    : UTM zone
LGWN               .         Well_E                        : Wellbore name
OPER               .         SomeCompany                   : Drilling operator group
SPDA               .         2020-02-17                    : Entered date
SHWN               .         Well_E                        : Well name
STAT               .         BARENTS SEA                   : Main area
TD                 .m        930.0                         : Total depth
UWI                .         Well_E                        : NPDID wellbore
Water_depth        .m        400.0                         : Water depth
X                  .m        400000.00                     : EW UTM
Y                  .m        8000000.00                    : NS UTM
~Parameter Information Block
#_______________________________________________________________________________
#
#PARAMETER_NAME    .UNIT     VALUE                         : DESCRIPTION
#_______________________________________________________________________________
SET                .         CPI                           : 
TLFamily_DEPTH     .         Measured Depth                : 
TLFamily_PHIE      .         Effective Porosity            : 
TLFamily_PHIT      .         Total Porosity                : 
TLFamily_SW        .         Water Saturation              : 
TLFamily_VSH       .         Shale Volume Fraction         : 
~Curve Information
#_______________________________________________________________________________
#
#LOGNAME           .UNIT     LOG_ID                        : DESCRIPTION
#_______________________________________________________________________________
DEPTH              .m                                      :  {F}
PHIE_test          .v/v                                    : Porosity {F}
PHIT_test          .v/v                                    : Porosity {F}
SW_test            .v/v                                    :  {F}
VSH_test           .v/v                                    : Vshale {F}
~Ascii
563.118    0          0.1113625  1          1         
563.2704   0          0.1218204  1          1         
563.4228   0.009493332 0.1329501  1          1         
563.5752   0.01176978 0.1352266  1          1         
563.7276   0.01974268 0.1431995  1          1         
563.88     0.02622163 0.1496784  1          1         
564.0324   0.03748706 0.1609439  1          1         
564.1848   0.03895686 0.1624137  1          1         
564.3372   0.04744014 0.1708969  1          1         
564.4896   0.04415689 0.1676137  1          1         
564.642    0.04582052 0.1692773  1          1         
564.7944   0.03288954 0.1563464  1          1         
564.9468   0.03321243 0.1566692  1          1         
565.0992   0.02906175 0.1525186  1          1         
565.2516   0.03200754 0.1554644  1          1         
565.404    0.03132231 0.1547791  1          1         
565.5564   0.02650508 0.1499619  1          1         
565.7088   0.02201987 0.1454767  1          1         
565.8612   0.01860989 0.1420667  1          1         
566.0136   0.02549518 0.148952   1          1         
566.166    0.02535934 0.1488162  1          1         
566.3184   0.02906853 0.1525253  1          1         
566.4708   0.03747233 0.1609291  1          1         
566.6232   0.04756245 0.1710193  1          1         
566.7756   0.04208088 0.1655377  1          1         
566.928    0.03858216 0.162039   1          1         
567.0804   0.02942232 0.1528791  1          1         
567.2328   0.0164631  0.1399199  1          1         
567.3852   0.01127293 0.1347297  1          1         
567.5376   0.01402902 0.1374858  1          1         
567.69     0.01265002 0.1361068  1          1         
567.8424   0.01941433 0.1428711  1          1         
567.9948   0.03364145 0.1570983  1          1         
568.1472   0.04481239 0.1682692  1          1         
568.2996   0.05199571 0.1754525  1          1         
568.452    0.05623778 0.1796946  1          1         
568.6044   0.05080877 0.1742656  1          1         
568.7568   0.0457952  0.169252   1          1         
568.9092   0.04329328 0.1667501  1          1         
569.0616   0.03550744 0.1589642  1          1         
569.214    0.0264599  0.1499167  1          1         
569.3664   0.02363096 0.1470878  1          1         
569.5188   0.02545251 0.1489093  1          1         
569.6712   0.02613273 0.1495895  1          1         
569.8236   0.03271117 0.156168   1          1         
569.976    0.03856493 0.1620217  1          1         
570.1284   0.04542727 0.1688841  1          1         
570.2808   0.05000506 0.1734619  1          1         
570.4332   0.05669638 0.1801532  1          1         
570.5856   0.05515623 0.178613   1          1         
570.738    0.06114082 0.1845976  1          1         
570.8904   0.05737778 0.1808346  1          1         
571.0428   0.05741796 0.1808748  1          1         
571.1952   0.05613152 0.1795883  1          1         
571.3476   0.04888773 0.1723445  1          1         
571.5      0.05425199 0.1777088  1          1         
571.6524   0.04736244 0.1708193  1          1         
571.8048   0.04395629 0.1674131  1          1         
571.9572   0.03966859 0.1631254  1          1         
572.1096   0.03200195 0.1554588  1          1         
572.262    0.02851927 0.1519761  1          1         
572.4144   0.03383645 0.1572933  1          1         
572.5668   0.02838593 0.1518427  1          1         
572.7192   0.0360692  0.159526   1          1         
572.8716   0.04209765 0.1655545  1          1         
573.024    0.04239024 0.165847   1          1         
573.1764   0.03862969 0.1620865  1          1         
573.3288   0.03141297 0.1548698  1          1         
573.4812   0.03124328 0.1547001  1          1         
573.6336   0.03243965 0.1558965  1          1         
573.786    0.02788718 0.151344   1          1         
573.9384   0.02900995 0.1524668  1          1         
574.0908   0.03253898 0.1559958  1          1         
574.2432   0.04697597 0.1704328  1          1         
574.3956   0.05695261 0.1804094  1          1         
574.548    0.05872044 0.1821772  1          1         
574.7004   0.05654332 0.1800001  1          1         
574.8528   0.05486732 0.1783241  1          1         
575.0052   0.0484025  0.1718593  1          1         
575.1576   0.04343706 0.1668939  1          1         
575.31     0.02843524 0.1518921  1          1         
575.4624   0          0.1043211  1          1         
575.6148   0          0.08891305 1          1         
575.7672   0          0.07773961 1          1         
575.9196   0          0.07073776 1          1         
576.072    0          0.08246736 1          1         
576.2244   0          0.102731   1          1         
576.3768   0.004637088 0.1280939  1          1         
576.5292   0.0146698  0.1381266  1          1         
576.6816   0.01828156 0.1417384  1          1         
576.834    0.01253581 0.1359926  1          1         
576.9864   0.005542647 0.1289995  1          1         
577.1388   0          0.1124001  1          1         
577.2912   0          0.09570195 1          1         
577.4436   0          0.08667604 1          1         
577.596    0          0.0810236  1          1         
577.7484   0          0.08255567 1          1         
577.9008   0          0.0779951  1          1         
578.0532   0          0.08117048 1          1         
578.2056   0          0.0787785  1          1         
578.358    0          0.07402102 1          1         
578.5104   0          0.07378834 1          1         
578.6628   0          0.07549391 1          1         
578.8152   0          0.07107728 1          1         
578.9676   0          0.07269941 1          1         
579.12     0          0.06709084 1          1         
579.2724   0          0.06955067 1          1         
579.4248   0          0.07121003 1          1         
579.5772   0          0.06675499 1          1         
579.7296   0          0.06348159 1          1         
579.882    0          0.06982853 1          1         
580.0344   0          0.08050011 1          1         
580.1868   0          0.08462416 1          1         
580.3392   0          0.09107486 1          1         
580.4916   0          0.09595567 1          1         
580.644    0          0.1011464  1          1         
580.7964   0          0.0957149  1          1         
580.9488   0          0.08877794 1          1         
581.1012   0          0.08116062 1          1         
581.2536   0          0.06926368 1          1         
581.406    0          0.06556128 1          1         
581.5584   0          0.06502793 1          1         
581.7108   0          0.06099203 1          1         
581.8632   0          0.06717605 1          1         
582.0156   0          0.06684462 1          1         
582.168    0          0.04896484 1          1         
582.3204   0          0.02665137 1          1         
582.4728   0          0.006707509 1          1         
582.6252   0          0          1          1         
582.7776   0          0          1          1         
582.93     0          0          1          1         
583.0824   0          0          1          1         
583.2348   0          0          1          1         
583.3872   0          0.006021099 1          1         
583.5396   0          0.01583585 1          1         
583.692    0          0.03237915 1          1         
583.8444   0          0.03189142 1          1         
583.9968   0          0.03964827 1          1         
584.1492   0          0.04394952 1          1         
584.3016   0          0.04008714 1          1         
584.454    0          0.03872109 1          1         
584.6064   0          0.04077782 1          0.9698555 
584.7588   0          0.0369927  1          0.9224659 
584.9112   0          0.04362721 1          0.8933918 
585.0636   0          0.0422569  1          0.9248819 
585.216    0          0.04878838 1          0.9640816 
