~VERSION INFORMATION
VERS.                                                 2.0:   CWLS Log ASCII Standard-VERSION 2.0
WRAP.                                                  NO:   One line per depth step
~Well Information Block
STRT.M                                           342.1868:   Top Depth
STOP.M                                          2635.3496:   Bottom Depth
STEP.M                                             .15240:   Depth Increment
NULL.                                            -999.250:   Null Value
FLD .                                              A NAME:   Field Name
WELL.                                             WELL A:   NAME
WBN .                                             WELL A:   WELLBORE
NATI.                                                 NOR:   COUNTRY
CTRY.                                                 NOR:   COUNTRY
COMP.                               	     COMPANY NAME:   OPERATOR
PROV.                                           SOMEWHERE:   PROVINCE
COUN.                                                 RIG:   RIG NAME
SPUD.                                          1970/01/01:   SPUD DATE
LATI.                                       00 00 00.00 N:   SURF. LATITUDE
LONG.                                       00 00 00.00 E:   SURF. LONGITUDE
PBWE.                                              WELL A:   PB WELL ID
PBWB.                                              WELL A:   PB WELLBORE ID
PBWS.                                                 all:   PB WELL NAME SET
~PARAMETER INFORMATION (log)
LNAM.                                           COMPOSITE:   NAME
LTYP.                                         DEPTH MATCH:   LOG TYPE
LSRV.                                              HYBRID:   LOG SERVICE
LSOU.                                                  OD:   LOG SOURCE
LVSN.                                                   1:   LOG VERSION
BHIS.                                                   R:   BRIEF HISTORY
FHIS.                                             RAW-LIS:   FULL HISTORY
LCNM.                                                EXLO:   LOGGING CONTRACTOR
TOOL.                             DIL/BHC/GR (COMPOSITED):   TOOL STRING
QCRM.                                           HQLD data:   QC COMMENT
QCCD.                                                high:   QC LEVEL
QCCO.                                               SIMON:   QC COMPANY
QCST.                                               final:   QC STATUS
~Curve Information Block
#MNEM.UNIT                                        API CODE    No Description
#=========                                        ========    == ===========
DEPT.M                                       00 001 00 00:     1  DEPTH
HDRHO.G/CC                                               :     2  Nuclear Radiation
HNPHI.FRAC                                               :     3  Nuclear Radiation
HRHOB.G/CC                                               :     4  Nuclear Radiation
HRS.OHMM                                                 :     5  Electromagnetic Response
HDT.US/F                                                 :     6  Acoustic Response
HGR.GAPI                                                 :     7  Nuclear Radiation
HRD.OHMM                                                 :     8  Electromagnetic Response
HRM.OHMM                                                 :     9  Electromagnetic Response
HCALI.IN                                                 :    10  Formation Evaluation
~ASCII
# ...
 2478.2252      .0584      .0588     2.6796    19.0776    58.8615    57.5658    18.5732    52.9882     5.4203
 2478.3776      .0489      .0602     2.6921    83.6826    57.7699    50.4460    19.9342    60.0479     5.3996
 2478.5300      .0439      .0661     2.6557    92.9476    58.6490    49.6378    20.4982    52.1664     5.4029
 2478.6824      .0479      .0788     2.6168    55.7483    62.1013    57.9566    20.3838    36.2062     5.5135
 2478.8348      .0524      .1067     2.5812    30.6477    65.1184    73.3596    20.2308    24.8183     5.4986
 2478.9872      .0636      .1374     2.5727    19.8677    65.7646    85.9205    19.7765    23.4152     5.4278
 2479.1396      .0720      .1566     2.5626    24.7030    65.6875    90.9123    19.1528    25.7451     5.3732
 2479.2920      .0784      .1627     2.5531    26.6848    65.9982    91.7813    18.7607    26.5405     5.3672
 2479.4444      .0787      .1606     2.5483    24.7641    66.2854    92.8904    19.3331    26.8418     5.3672
 2479.5968      .0708      .1535     2.5663    28.4183    65.2193    91.4945    20.5288    29.5643     5.3692
 2479.7492      .0618      .1496     2.6281    23.4318    63.6555    86.0038    20.6646    33.1698     5.3984
 2479.9016      .0637      .1414     2.7111    25.2943    62.8564    79.5037    20.6984    37.2924     5.5008
 2480.0540      .0651      .1423     2.7573    37.0464    62.9601    74.8298    20.6015    41.9146     5.4672
 2480.2064      .0518      .1391     2.6965    41.3926    64.2200    76.5465    20.6456    40.4872     5.3921
 2480.3588      .0469      .1376     2.6331    40.8910    65.3511    78.1250    20.7170    31.1638     5.4682
 2480.5112      .0468      .1327     2.5839    40.9690    65.1449    78.1729    20.9602    28.4729     5.5191
 2480.6636      .0520      .1318     2.5811    30.4681    64.7553    77.2925    21.1219    30.4578     5.4690
 2480.8160      .0581      .1328     2.5874    27.5800    64.8265    78.0780    21.1454    30.2877     5.3874
 2480.9684      .0573      .1361     2.5823    34.8185    64.9149    82.5306    21.9114    30.0708     5.3684
 2481.1208      .0617      .1427     2.5753    34.4729    64.1835    85.8659    23.1647    30.1610     5.3672
 2481.2732      .0680      .1412     2.5629    33.5062    63.1569    88.7526    24.6398    30.5089     5.3672
 2481.4256      .0658      .1369     2.5823    31.3752    62.0957    86.6249    25.1320    32.7770     5.3708
 2481.5780      .0583      .1404     2.6096    26.6830    62.8510    85.7740    25.5207    37.2998     5.4100
 2481.7304      .0564      .1598     2.6453    34.7729    64.7965    88.7285    26.0775    39.0225     5.5024
 2481.8828      .0420      .1886     2.6333    27.5761    67.7634    94.7104    26.6493    35.6379     5.5276
 2482.0352      .0259      .2075     2.5993    25.3447    70.6942   103.2489    26.6617    32.9269     5.5188
 2482.1876      .0230      .2335     2.5871    27.0155    72.1250   108.8173    26.3036    32.6452     5.5308
 2482.3400      .0282      .2621     2.5923    26.6608    72.7930   114.0050    25.2576    32.5394     5.5361
 2482.4924      .0327      .2845     2.5972    26.1387    73.1343   118.5292    24.5325    33.0865     5.4814
 2482.6448      .0387      .2906     2.5953    29.9605    73.4894   121.2476    24.0131    33.9680     5.3799
 2482.7972      .0353      .2913     2.5600    36.3335    73.6586   124.8173    23.3762    34.5679     5.3672
 2482.9496      .0350      .2882     2.5300    46.9415    72.8798   120.3846    22.0507    33.9957     5.3672
 2483.1020      .0373      .2533     2.5110    53.4290    71.6827   110.7115    21.0011    29.4900     5.3672
 2483.2544      .0425      .1997     2.5223    54.6250    70.1310    97.0660    20.1100    25.0690     5.3676
 2483.4068      .0454      .1524     2.5419    38.9934    68.6263    89.5400    19.2492    22.7751     5.3751
 2483.5592      .0409      .1492     2.5523    27.8797    68.0288    91.1731    18.2966    21.5542     5.4100
 2483.7116      .0390      .1670     2.5603    19.7748    68.0913    92.3750    17.5480    20.6408     5.4160
 2483.8640      .0334      .1848     2.5634    19.6079    67.8855    90.1110    17.2640    21.4948     5.4092
 2484.0164      .0299      .1844     2.5902    33.5535    66.5691    84.4680    17.0611    24.0668     5.4558
 2484.1688      .0360      .1750     2.6287    27.5145    65.8029    84.8221    17.2522    25.3614     5.5139
 2484.3212      .0453      .1666     2.6501    29.9201    65.9035    87.5895    17.6652    25.6769     5.4434
 2484.4736      .0483      .1643     2.6299    27.8034    66.7527    91.4483    17.5737    26.5372     5.3780
 2484.6260      .0529      .1696     2.5961    27.9692    67.6343    96.3871    16.6971    26.9010     5.3676
 2484.7784      .0644      .1582     2.5785    28.7012    67.7740    98.9330    15.9661    24.3542     5.3672
 2484.9308      .0701      .1359     2.5620    32.2781    67.7167    98.6011    15.4544    21.0549     5.3672
 2485.0832      .0674      .1043     2.5439    39.6866    67.5146    99.1370    15.0648    18.7132     5.3672
 2485.2356      .0581      .0976     2.5266    24.6740    67.2699   101.5945    14.7582    17.2254     5.3696
 2485.3880      .0446      .1105     2.5213    18.3220    66.9522   105.3292    14.2242    16.8316     5.3906
 2485.5404      .0373      .1332     2.5396    17.0124    66.8989   108.0453    13.8228    17.8541     5.4068
 2485.6928      .0358      .1536     2.5672    25.3405    66.6502   108.6702    14.0254    19.6116     5.3720
 2485.8452      .0323      .1598     2.5788    24.8049    65.6369   102.7908    14.7376    20.9339     5.3700
 2485.9976      .0256      .1464     2.5774    21.4578    64.1037    89.1618    15.6887    21.9628     5.3909
 2486.1500      .0249      .1324     2.6201    19.4040    63.1346    77.9663    16.5748    24.1497     5.3855
 2486.3024      .0421      .1287     2.6968    24.5070    63.3700    77.9405    17.4864    25.6959     5.3692
 2486.4548      .0531      .1362     2.7331    38.4813    63.7301    89.1586    18.4410    25.8459     5.3672
 2486.6072      .0455      .1392     2.6703    45.2857    64.5506   102.0922    18.9968    24.8471     5.3672
 2486.7596      .0400      .1345     2.6001    26.8863    65.5096   113.2356    19.6999    23.7384     5.3672
 2486.9120      .0533      .1279     2.5720    22.6660    65.5050   117.1005    20.1884    23.4133     5.3672
 2487.0644      .0545      .1263     2.5518    22.9276    65.3604   117.4907    19.4436    23.1837     5.3672
 2487.2168      .0502      .1385     2.5485    22.9995    65.6051   115.8190    18.4806    22.1610     5.3720
 2487.3692      .0477      .1541     2.5659    20.6761    66.0665   113.0970    17.5560    20.5048     5.4076
 2487.5216      .0458      .1660     2.5913    21.9338    66.3510   111.2596    15.4910    20.6986     5.3972
 2487.6740      .0360      .1739     2.5983    19.1713    66.4567   107.7933    12.5153    21.9931     5.3751
 2487.8264      .0321      .1832     2.5939    26.4689    66.4715   100.5425     8.6601    22.9527     5.3800
 2487.9788      .0337      .1909     2.5897    25.7301    65.9814    84.2906     5.4037    20.8183     5.3688
 2488.1312      .0342      .1741     2.5786    25.2185    66.1586    62.5793     3.9503    13.9712     5.3571
 2488.2836      .0275      .1469     2.5670    19.6751    67.2211    40.4639     3.4451     7.8311     5.2724
 2488.4360      .0245      .1142     2.5785     9.8468    68.0190    25.4463     3.1770     5.3974     5.2065
 2488.5884      .0198      .0964     2.5749     5.3683    68.1782    16.1940     2.9068     4.3909     5.1992
 2488.7408      .0113      .0860     2.5320     4.0697    67.9663    13.0673     2.6651     3.9453     5.1988
 2488.8932      .0055      .0826     2.4722     3.6598    68.0525    12.8425     2.4960     4.1474     5.1961
 2489.0456      .0054      .0813     2.4319     3.6245    68.8205    14.3570     2.4345     4.7487     5.1988
 2489.1980      .0099      .0874     2.4275     3.8134    69.5811    17.0008     2.4695     5.1021     5.1992
