~Version
 VERS              .         3.0                           : CWLS LOG ASCII STANDARD - VERSION 3.0
 WRAP              .         NO                            : ONE LINE PER DEPTH STEP
 DLM               .         SPACE                         : DELIMITING CHARACTER(SPACE TAB OR COMMA)
~Well Information
#_______________________________________________________________________________
#
#PARAMETER_NAME    .UNIT     VALUE                         : DESCRIPTION
#_______________________________________________________________________________
STRT               .m        563.118                       : First reference value
STOP               .m        914.2476                      : Last reference value
STEP               .m        0.1524                        : Step increment
NULL               .         -9999                         : Missing value
COMP               .         SomeCompany                   : Company
WELL               .         Well_E                        : Well name
FLD                .                                       : Field
LOC                .                                       : Location
SRVC               .                                       : Service Company
CTRY               .         NO                            : Country
DATE               .                                       : Service Date
LATI               .deg      70.000000                     : Latitude
LONG               .deg      35.000000                     : Longitude
GDAT               .                                       : Geodetic Datum
Completion_date    .         2020-02-17                    : Completed date
COUNTRY            .         Norway                        : 
EREF               .m        25.0                          : Kelly bushing elevation
DREF               .m        MSL                           : 
HZCS               .         ED50-UTM35                    : UTM zone
LGWN               .         Well_E                        : Wellbore name
OPER               .         SomeCompany                   : Drilling operator group
SPDA               .         2020-02-17                    : Entered date
SHWN               .         Well_E                        : Well name
STAT               .         BARENTS SEA                   : Main area
TD                 .m        930.0                         : Total depth
UWI                .         Well_E                        : NPDID wellbore
Water_depth        .m        400.0                         : Water depth
X                  .m        400000.00                     : EW UTM
Y                  .m        8000000.00                    : NS UTM
~Parameter Information Block
#_______________________________________________________________________________
#
#PARAMETER_NAME    .UNIT     VALUE                         : DESCRIPTION
#_______________________________________________________________________________
SET                .         CPI                           : 
TLFamily_DEPTH     .         Measured Depth                : 
TLFamily_PHIE      .         Effective Porosity            : 
TLFamily_PHIT      .         Total Porosity                : 
TLFamily_SW        .         Water Saturation              : 
TLFamily_VSH       .         Shale Volume Fraction         : 
~Curve Information
#_______________________________________________________________________________
#
#LOGNAME           .UNIT     LOG_ID                        : DESCRIPTION
#_______________________________________________________________________________
DEPTH              .m                                      :  {F}
PHIE_test          .v/v                                    : Porosity {F}
PHIT_test          .v/v                                    : Porosity {F}
SW_test            .v/v                                    :  {F}
VSH_test           .v/v                                    : Vshale {F}
~Ascii
# ...
807.8724   0.2462692  0.2462692  0.7893518  0         
808.0248   0.2456519  0.2456519  0.8073872  0         
808.1772   0.2369507  0.2369507  0.8041726  0         
808.3296   0.214201   0.224639   0.8352666  0.08454791
808.482    0.2081082  0.2241507  0.8354965  0.1299444 
808.6344   0.2107593  0.2320426  0.8440907  0.1723953 
808.7868   0.2192113  0.2380006  0.8551418  0.1521935 
808.9392   0.2132206  0.2379803  0.8320079  0.2005536 
809.0916   0.2034148  0.2334266  0.8570834  0.2430956 
809.244    0.201598   0.2304605  0.8817261  0.2337863 
809.3964   0.1950199  0.2261958  0.9313217  0.2525243 
809.5488   0.1986089  0.2245358  0.9182583  0.2100084 
809.7012   0.1967462  0.2242149  0.9033002  0.2224957 
809.8536   0.2059117  0.2223272  0.8797256  0.1329654 
810.006    0.1995928  0.2181734  0.9562207  0.150503  
810.1584   0.1762865  0.205037   1          0.232879  
810.3108   0.1494834  0.1906234  1          0.3332343 
810.4632   0.1312845  0.1810599  1          0.4031809 
810.6156   0.1375688  0.1842556  1          0.3781632 
810.768    0.1605864  0.1981698  1          0.3044254 
810.9204   0.1923312  0.2135377  0.9192674  0.1717725 
811.0728   0.2049527  0.2239655  0.940237   0.1540041 
811.2252   0.2150436  0.2268791  0.9013687  0.09586796
811.3776   0.2070223  0.2255981  0.9237812  0.1504641 
811.53     0.2014741  0.2150396  0.9146797  0.1098804 
811.6824   0.1429335  0.1809803  1          0.3081792 
811.8348   0.08162764 0.1398649  1          0.4717214 
811.9872   0.0485436  0.1240673  1          0.6117417 
812.1396   0.0733951  0.1342432  1          0.4928695 
812.292    0.1019136  0.1430285  1          0.33303   
812.4444   0.1074622  0.1368056  1          0.2376816 
812.5968   0.09247754 0.1237612  1          0.2533973 
812.7492   0.07088699 0.1146765  1          0.3546952 
812.9016   0.04695689 0.1075889  1          0.4911191 
813.054    0.02637819 0.1024155  1          0.615902  
813.2064   0.0298844  0.1018377  1          0.5828216 
813.3588   0.03094535 0.1005383  1          0.5637029 
813.5112   0.03335449 0.1022994  1          0.5584534 
813.6636   0.04302546 0.1124766  1          0.5625541 
813.816    0.067307   0.1248223  1          0.4658736 
813.9684   0.09253956 0.1411155  1          0.3934653 
814.1208   0.102972   0.145497   1          0.3444528 
814.2732   0.102963   0.1457204  1          0.3463344 
814.4256   0.09687222 0.1423241  1          0.3681602 
814.578    0.08806358 0.1407741  1          0.426955  
814.7304   0.08202317 0.1380748  1          0.4540182 
814.8828   0.07282918 0.1312056  1          0.4728486 
815.0352   0.08862283 0.1374939  1          0.3958558 
815.1876   0.1056164  0.1487204  1          0.3491423 
815.34     0.1441137  0.1714809  1          0.2216748 
815.4924   0.1574254  0.1800506  1          0.183264  
815.6448   0.1518529  0.1760778  1          0.196222  
815.7972   0.1280694  0.1631254  1          0.2839538 
815.9496   0.1083027  0.1557315  1          0.3841731 
816.102    0.1171844  0.1640512  1          0.3796217 
816.2544   0.1330325  0.1777649  1          0.362332  
816.4068   0.1292411  0.1788822  1          0.4020926 
816.5592   0.1053555  0.1622117  1          0.4605352 
816.7116   0.06721547 0.1387309  1          0.5792748 
816.864    0.04917173 0.1243815  1          0.609199  
817.0164   0.05030442 0.1210173  1          0.5727741 
817.1688   0.05740234 0.1251742  1          0.5489517 
817.3212   0.0661618  0.1260278  1          0.4849142 
817.4736   0.05701519 0.1203365  1          0.5129023 
817.626    0.04409644 0.1098309  1          0.532449  
817.7784   0.02842099 0.1036488  1          0.6093451 
817.9308   0.02184922 0.1027544  1          0.6553321 
818.0832   0.03147889 0.1101068  1          0.6368863 
818.2356   0.03782472 0.1165803  1          0.6379205 
818.388    0.04669531 0.1229155  1          0.6173835 
818.5404   0.03457328 0.114055   1          0.643802  
818.6928   0.02731141 0.1086525  1          0.6588627 
818.8452   0.02837449 0.110776   1          0.6674524 
818.9976   0.05323095 0.1235698  1          0.5697449 
819.15     0.075213   0.1292377  1          0.4376002 
819.3024   0.08563998 0.1307748  1          0.3655918 
819.4548   0.07666662 0.1249278  1          0.3909154 
819.6072   0.06356953 0.1201877  1          0.4586069 
819.7596   0.05058359 0.1156476  1          0.5270181 
819.912    0.04523129 0.1176457  1          0.5865569 
820.0644   0.05716543 0.1288383  1          0.5805501 
820.2168   0.06310473 0.1331995  1          0.5677671 
820.3692   0.05764273 0.1300347  1          0.5863745 
820.5216   0.04178713 0.1187476  1          0.6233797 
820.674    0.03987804 0.1148815  1          0.6075283 
820.8264   0.04208533 0.1189729  1          0.6227894 
820.9788   0.04303465 0.1249384  1          0.6634202 
821.1312   0.04377441 0.1292025  1          0.6919677 
821.2836   0.05147367 0.1281581  1          0.6211436 
821.436    0.05074236 0.1216772  1          0.5745721 
821.5884   0.0439644  0.1123272  1          0.5537388 
821.7408   0.03395182 0.1071062  1          0.59255   
821.8932   0.04538424 0.1131933  1          0.5492536 
822.0456   0.06576854 0.1258432  1          0.4866047 
822.198    0.09305415 0.1403142  1          0.3828061 
822.3504   0.1086152  0.1521883  1          0.352942  
822.5028   0.1263382  0.1656587  1          0.3184959 
822.6552   0.1584287  0.1885847  1          0.2442632 
822.8076   0.2051979  0.2203327  1          0.1225923 
822.96     0.2503878  0.2506519  0.9472291  0.002139452
823.1124   0.2665686  0.2665686  0.9427913  0         
823.2648   0.2677507  0.2677507  0.9654157  0         
823.4172   0.262869   0.2641254  0.9645961  0.01017681
823.5696   0.2651308  0.2651308  0.9418032  0         
823.722    0.2695092  0.2695092  0.9398947  0         
823.8744   0.2687822  0.2687822  0.9610454  0         
824.0268   0.2615741  0.2615741  0.9666342  0         
824.1792   0.2544575  0.2544575  0.980256   0         
824.3316   0.2516315  0.2516315  0.9953544  0         
824.484    0.2502475  0.2502475  0.9995183  0         
824.6364   0.2460106  0.2460106  1          0         
824.7888   0.2431581  0.2431581  1          0         
824.9412   0.2449037  0.2449037  1          0         
825.0936   0.2524327  0.2524327  0.9651443  0         
825.246    0.261321   0.261321   0.9802656  0         
825.3984   0.2584932  0.2584932  1          0         
825.5508   0.2301853  0.2422396  1          0.09763934
825.7032   0.2170433  0.2291623  1          0.09816434
825.8556   0.2276282  0.2346951  1          0.05724196
826.008    0.2521544  0.2521544  1          0         
826.1604   0.2625427  0.2625427  1          0         
826.3128   0.2590846  0.2590846  1          0         
826.4652   0.251479   0.251479   1          0         
826.6176   0.2474136  0.2474136  0.9861954  0         
826.77     0.2424034  0.2485908  1          0.05011823
826.9224   0.249308   0.2494378  1          0.001050921
827.0748   0.2485185  0.2485185  1          0         
827.2272   0.2484785  0.2484785  0.9514363  0         
827.3796   0.2442343  0.249037   1          0.03890181
827.532    0.2392133  0.2468352  1          0.06173744
827.6844   0.231908   0.2466315  1          0.1192605 
827.8368   0.2394097  0.2485593  1          0.07411151
827.9892   0.2456062  0.2525463  1          0.05621535
828.1416   0.2446924  0.2512359  1          0.05300263
828.294    0.2329378  0.2488648  1          0.129009  
828.4464   0.2311033  0.2507074  1          0.1587936 
828.5988   0.2490689  0.255605   1          0.05294281
828.7512   0.2559855  0.2587346  1          0.02226752
828.9036   0.2555561  0.2555561  1          0         
829.056    0.2467328  0.2511111  1          0.03546432
829.2084   0.251112   0.2517309  1          0.005012592
829.3608   0.2565297  0.2565297  0.9904003  0         
829.5132   0.257647   0.257647   1          0         
829.6656   0.2530111  0.2530111  0.9843848  0         
829.818    0.245266   0.245266   1          0         
829.9704   0.2395883  0.2395883  1          0         
