~VERSION INFORMATION
VERS.                                                 2.0:   CWLS Log ASCII Standard-VERSION 2.0
WRAP.                                                  NO:   One line per depth step
~Well Information Block
STRT.M                                           342.1868:   Top Depth
STOP.M                                          2635.3496:   Bottom Depth
STEP.M                                             .15240:   Depth Increment
NULL.                                            -999.250:   Null Value
FLD .                                              A NAME:   Field Name
WELL.                                             WELL A:   NAME
WBN .                                             WELL A:   WELLBORE
NATI.                                                 NOR:   COUNTRY
CTRY.                                                 NOR:   COUNTRY
COMP.                               	     COMPANY NAME:   OPERATOR
PROV.                                           SOMEWHERE:   PROVINCE
COUN.                                                 RIG:   RIG NAME
SPUD.                                          1970/01/01:   SPUD DATE
LATI.                                       00 00 00.00 N:   SURF. LATITUDE
LONG.                                       00 00 00.00 E:   SURF. LONGITUDE
PBWE.                                              WELL A:   PB WELL ID
PBWB.                                              WELL A:   PB WELLBORE ID
PBWS.                                                 all:   PB WELL NAME SET
~PARAMETER INFORMATION (log)
LNAM.                                           COMPOSITE:   NAME
LTYP.                                         DEPTH MATCH:   LOG TYPE
LSRV.                                              HYBRID:   LOG SERVICE
LSOU.                                                  OD:   LOG SOURCE
LVSN.                                                   1:   LOG VERSION
BHIS.                                                   R:   BRIEF HISTORY
FHIS.                                             RAW-LIS:   FULL HISTORY
LCNM.                                                EXLO:   LOGGING CONTRACTOR
TOOL.                             DIL/BHC/GR (COMPOSITED):   TOOL STRING
QCRM.                                           HQLD data:   QC COMMENT
QCCD.                                                high:   QC LEVEL
QCCO.                                               SIMON:   QC COMPANY
QCST.                                               final:   QC STATUS
~Curve Information Block
#MNEM.UNIT                                        API CODE    No Description
#=========                                        ========    == ===========
DEPT.M                                       00 001 00 00:     1  DEPTH
HDRHO.G/CC                                               :     2  Nuclear Radiation
HNPHI.FRAC                                               :     3  Nuclear Radiation
HRHOB.G/CC                                               :     4  Nuclear Radiation
HRS.OHMM                                                 :     5  Electromagnetic Response
HDT.US/F                                                 :     6  Acoustic Response
HGR.GAPI                                                 :     7  Nuclear Radiation
HRD.OHMM                                                 :     8  Electromagnetic Response
HRM.OHMM                                                 :     9  Electromagnetic Response
HCALI.IN                                                 :    10  Formation Evaluation
~ASCII
# ...
 1721.7116     -.0081      .3661     2.4402     5.7785    82.1209    53.8683     3.2589     3.1981    13.4369
 1721.8640     -.0098      .3660     2.4418     5.9842    82.1228    52.9534     3.2815     3.3170    13.4463
 1722.0164     -.0095      .3603     2.4386     5.9608    82.1247    51.2102     3.2778     3.4532    13.4366
 1722.1688     -.0093      .3585     2.4355     5.7092    82.3998    49.5847     3.2419     3.5319    13.4052
 1722.3212     -.0096      .3610     2.4351     5.6652    82.9223    49.1055     3.1669     3.5413    13.4041
 1722.4736     -.0105      .3610     2.4337     5.5237    83.1227    49.7071     3.0920     3.4892    13.3999
 1722.6260     -.0116      .3533     2.4264     5.0953    83.1246    50.5777     3.0288     3.3681    13.3833
 1722.7784     -.0141      .3408     2.4186     4.9426    82.8288    51.4412     2.9663     3.2321    13.3605
 1722.9308     -.0167      .3363     2.4157     5.1185    82.7315    51.9920     2.9039     3.2339    13.3390
 1723.0832     -.0163      .3446     2.4155     5.1235    82.7334    51.9302     2.8569     3.2740    13.3324
 1723.2356     -.0154      .3566     2.4162     4.9500    83.2937    51.4812     2.8284     3.3145    13.3677
 1723.3880     -.0144      .3621     2.4124     4.9175    83.5310    51.2130     2.8454     3.2831    13.3573
 1723.5404     -.0144      .3595     2.4087     5.0395    83.7313    51.1688     2.8888     3.2339    13.3434
 1723.6928     -.0149      .3528     2.4033     5.1813    83.9316    50.7896     2.9322     3.2455    13.2963
 1723.8452     -.0166      .3503     2.3981     5.3675    83.9335    50.3317     2.9756     3.2585    13.2839
 1723.9976     -.0174      .3506     2.3923     5.0842    84.2330    51.3884     3.0011     3.2630    13.2420
 1724.1500     -.0165      .3490     2.3869     5.1342    84.3341    53.3967     2.9895     3.2631    13.2226
 1724.3024     -.0149      .3450     2.3842     4.9481    84.3360    54.4365     2.9778     3.2546    13.1866
 1724.4548     -.0131      .3403     2.3864     4.5932    84.1395    54.3229     2.9780     3.2293    13.1993
 1724.6072     -.0112      .3396     2.3928     5.0209    83.5461    53.6025     3.0034     3.2047    13.2172
 1724.7596     -.0100      .3424     2.4015     5.3608    82.6575    53.2581     3.0760     3.2227    13.2030
 1724.9120     -.0098      .3417     2.4152     4.9633    82.1600    53.3564     3.1491     3.2604    13.2163
 1725.0644     -.0098      .3368     2.4307     5.4770    81.5167    53.0533     3.2353     3.3769    13.2394
 1725.2168     -.0099      .3317     2.4415     6.2405    81.7788    52.2039     3.3215     3.5662    13.2828
 1725.3692     -.0099      .3327     2.4418     5.9616    82.1485    51.6300     3.4078     3.7850    13.2666
 1725.5216     -.0092      .3359     2.4361     5.5820    82.5670    51.8345     3.4607     3.9343    13.2725
 1725.6740     -.0078      .3328     2.4341     5.8853    82.5695    52.2249     3.4857     3.8443    13.2954
 1725.8264     -.0072      .3282     2.4345     5.9808    82.5719    51.8992     3.5088     3.8022    13.3324
 1725.9788     -.0075      .3304     2.4358     5.7813    82.5743    51.4322     3.4955     3.7601    13.3577
 1726.1312     -.0079      .3368     2.4352     5.6325    82.5767    52.1849     3.4821     3.7180    13.3820
 1726.2836     -.0082      .3406     2.4334     5.6067    82.5791    53.9194     3.4643     3.6955    13.3810
 1726.4360     -.0087      .3421     2.4353     5.4227    82.5815    55.2395     3.4428     3.6806    13.3801
 1726.5884     -.0092      .3415     2.4375     5.2361    82.3855    55.5864     3.4214     3.6656    13.3799
 1726.7408     -.0098      .3383     2.4402     5.7114    82.0598    55.5654     3.3999     3.6506    13.3771
 1726.8932     -.0103      .3402     2.4450     5.5729    81.7637    55.2919     3.3773     3.6377    13.3538
 1727.0456     -.0105      .3477     2.4509     5.5489    81.4007    54.2972     3.3381     3.6539    13.3495
 1727.1980     -.0105      .3551     2.4561     7.2142    81.8992    52.9940     3.2989     3.6690    13.3452
 1727.3504     -.0106      .3521     2.4534     6.1091    82.5169    51.9885     3.2596     3.6684    13.3408
 1727.5028     -.0108      .3494     2.4397     5.0744    83.4137    51.0618     3.2204     3.6250    13.3372
 1727.6552     -.0114      .3515     2.4252     4.9847    83.5930    50.9001     3.1812     3.5193    13.3423
 1727.8076     -.0110      .3524     2.4149     5.2804    83.7938    51.5667     3.1419     3.4198    13.3714
 1727.9600     -.0102      .3479     2.4136     5.1017    83.5978    52.2164     3.1159     3.3432    13.3727
 1728.1124     -.0091      .3462     2.4181     5.2495    83.3026    52.7108     3.0913     3.3128    13.3841
 1728.2648     -.0079      .3481     2.4243     5.3245    83.6026    52.9577     3.0666     3.2896    13.3969
 1728.4172     -.0070      .3474     2.4280     5.3378    83.6051    53.1612     3.0420     3.3006    13.3604
 1728.5696     -.0072      .3462     2.4278     5.3837    83.6075    53.2471     3.0311     3.3229    13.3642
 1728.7220     -.0085      .3464     2.4270     5.2890    83.4115    52.6029     3.0615     3.3444    13.3578
 1728.8744     -.0097      .3433     2.4267     5.1558    82.9560    51.2305     3.0918     3.3582    13.3646
 1729.0268     -.0098      .3374     2.4296     5.2784    82.5235    49.9572     3.1222     3.3719    13.3659
 1729.1792     -.0096      .3377     2.4343     5.3734    82.3942    49.1204     3.1481     3.4602    13.3708
 1729.3316     -.0090      .3442     2.4392     5.4858    82.4291    48.8165     3.1708     3.4977    13.3615
 1729.4840     -.0069      .3559     2.4415     5.3965    82.8283    49.2987     3.1894     3.4971    13.3605
 1729.6364     -.0055      .3621     2.4417     5.0588    83.0292    50.8764     3.1696     3.4301    13.3596
 1729.7888     -.0060      .3586     2.4380     4.7511    83.2915    52.7901     3.1498     3.3566    13.3586
 1729.9412     -.0062      .3455     2.4342     5.0392    83.2348    53.5391     3.1285     3.2520    13.3576
 1730.0936     -.0054      .3294     2.4305     4.9751    83.4929    52.5058     3.0942     3.1386    13.3567
 1730.2460     -.0043      .3183     2.4274     4.9367    83.7333    51.3842     3.0599     3.0251    13.3557
 1730.3984     -.0041      .3185     2.4248     4.9815    83.7779    51.9413     3.0257     3.0182    13.3547
 1730.5508     -.0054      .3278     2.4230     4.8562    83.8373    53.5431     3.0550     3.0177    13.3537
 1730.7032     -.0073      .3392     2.4240     4.8853    83.4538    54.6722     3.1139     3.0173    13.3522
 1730.8556     -.0089      .3462     2.4293     4.8091    82.6622    54.1917     3.1800     3.0407    13.3435
 1731.0080     -.0102      .3422     2.4394     4.9321    81.0783    52.7973     3.2698     3.2442    13.3176
 1731.1604     -.0107      .3397     2.4558     5.0834    80.3309    51.6890     3.3879     3.4475    13.3224
 1731.3128     -.0103      .3448     2.4720     6.6488    80.0796    51.3775     3.5060     3.7358    13.3086
 1731.4652     -.0098      .3497     2.4798     7.3317    80.7702    51.7696     3.6241     4.0319    13.3033
 1731.6176     -.0094      .3501     2.4742     6.7579    82.0185    52.3664     3.6943     4.3075    13.2867
 1731.7700     -.0091      .3452     2.4618     6.1869    82.9638    53.4680     3.7094     4.1914    13.2809
 1731.9224     -.0091      .3385     2.4506     5.6997    83.2639    54.9676     3.7013     3.9463    13.2577
 1732.0748     -.0092      .3364     2.4476     5.7247    83.1671    55.7553     3.6403     3.7786    13.2298
 1732.2272     -.0095      .3360     2.4474     5.4777    83.0703    55.7492     3.5517     3.6542    13.2158
 1732.3796     -.0097      .3331     2.4452     5.6462    83.2711    55.7500     3.4809     3.6507    13.2175
 1732.5320     -.0100      .3317     2.4409     5.5702    83.2735    55.9467     3.4100     3.6048    13.1968
 1732.6844     -.0103      .3376     2.4379     5.3032    83.4744    55.4216     3.3689     3.5579    13.1728
