~Version
 VERS              .         3.0                           : CWLS LOG ASCII STANDARD - VERSION 3.0
 WRAP              .         NO                            : ONE LINE PER DEPTH STEP
 DLM               .         SPACE                         : DELIMITING CHARACTER(SPACE TAB OR COMMA)
~Well Information
#_______________________________________________________________________________
#
#PARAMETER_NAME    .UNIT     VALUE                         : DESCRIPTION
#_______________________________________________________________________________
STRT               .m        563.118                       : First reference value
STOP               .m        914.2476                      : Last reference value
STEP               .m        0.1524                        : Step increment
NULL               .         -9999                         : Missing value
COMP               .         SomeCompany                   : Company
WELL               .         Well_E                        : Well name
FLD                .                                       : Field
LOC                .                                       : Location
SRVC               .                                       : Service Company
CTRY               .         NO                            : Country
DATE               .                                       : Service Date
LATI               .deg      70.000000                     : Latitude
LONG               .deg      35.000000                     : Longitude
GDAT               .                                       : Geodetic Datum
Completion_date    .         2020-02-17                    : Completed date
COUNTRY            .         Norway                        : 
EREF               .m        25.0                          : Kelly bushing elevation
DREF               .m        MSL                           : 
HZCS               .         ED50-UTM35                    : UTM zone
LGWN               .         Well_E                        : Wellbore name
OPER               .         SomeCompany                   : Drilling operator group
SPDA               .         2020-02-17                    : Entered date
SHWN               .         Well_E                        : Well name
STAT               .         BARENTS SEA                   : Main area
TD                 .m        930.0                         : Total depth
UWI                .         Well_E                        : NPDID wellbore
Water_depth        .m        400.0                         : Water depth
X                  .m        400000.00                     : EW UTM
Y                  .m        8000000.00                    : NS UTM
~Parameter Information Block
#_______________________________________________________________________________
#
#PARAMETER_NAME    .UNIT     VALUE                         : DESCRIPTION
#_______________________________________________________________________________
SET                .         CPI                           : 
TLFamily_DEPTH     .         Measured Depth                : 
TLFamily_PHIE      .         Effective Porosity            : 
TLFamily_PHIT      .         Total Porosity                : 
TLFamily_SW        .         Water Saturation              : 
TLFamily_VSH       .         Shale Volume Fraction         : 
~Curve Information
#_______________________________________________________________________________
#
#LOGNAME           .UNIT     LOG_ID                        : DESCRIPTION
#_______________________________________________________________________________
DEPTH              .m                                      :  {F}
PHIE_test          .v/v                                    : Porosity {F}
PHIT_test          .v/v                                    : Porosity {F}
SW_test            .v/v                                    :  {F}
VSH_test           .v/v                                    : Vshale {F}
~Ascii
# ...
830.1228   0.2326427  0.2326427  1          0         
830.2752   0.2284655  0.2313427  1          0.02330543
830.4276   0.2357549  0.2406414  1          0.03958106
830.58     0.2524118  0.2524118  0.992263   0         
830.7324   0.2598587  0.2598587  0.9925517  0         
830.8848   0.2599593  0.2599593  0.9591582  0         
831.0372   0.2610112  0.2610112  0.9718469  0         
831.1896   0.2607698  0.2620401  0.976074   0.01028916
831.342    0.2521139  0.2603691  1          0.06686732
831.4944   0.2547575  0.2577149  1          0.02395497
831.6468   0.2449137  0.2525797  1          0.06209467
831.7992   0.2366777  0.2430526  1          0.05163598
831.9516   0.2231774  0.2317748  1          0.06963831
832.104    0.2168509  0.2175013  1          0.005268016
832.2564   0.1917586  0.1977377  1          0.04843087
832.4088   0.1631361  0.1801093  1          0.1374833 
832.5612   0.1501478  0.1826685  1          0.2634177 
832.7136   0.1707777  0.2019778  1          0.2527205 
832.866    0.1913625  0.2164259  1          0.2030136 
833.0184   0.1852745  0.2158421  1          0.2475975 
833.1708   0.1798431  0.2126568  1          0.2657916 
833.3232   0.1824929  0.213676   1          0.252583  
833.4756   0.1972187  0.2167161  1          0.1579294 
833.628    0.1905858  0.2121013  1          0.1742749 
833.7804   0.1774317  0.2064556  1          0.2350937 
833.9328   0.1252914  0.1716303  1          0.3753453 
834.0852   0.04830642 0.1226531  1          0.602208  
834.2376   0          0.08779881 1          0.7894019 
834.39     0          0.08916736 1          0.7447132 
834.5424   0.04564585 0.1151747  1          0.5631837 
834.6948   0.08074721 0.1273723  1          0.3776634 
834.8472   0.06835158 0.1226691  1          0.4399722 
834.9996   0.04758841 0.1099279  1          0.5049496 
835.152    0.02358032 0.09908396 1          0.6115794 
835.3044   0.01806108 0.09376855 1          0.6132305 
835.4568   0.01231178 0.09525248 1          0.6718196 
835.6092   0.0000752  0.09380254 1          0.7591916 
835.7616   0.007285026 0.09751555 1          0.7308671 
835.914    0.01415233 0.09867658 1          0.6846464 
836.0664   0.01689327 0.1023691  1          0.6923544 
836.2188   0.03403644 0.109863   1          0.6141949 
836.3712   0.05936265 0.1204729  1          0.4949929 
836.5236   0.07958432 0.130718   1          0.4141826 
836.676    0.07024013 0.1253877  1          0.4466953 
836.8284   0.0498147  0.1113365  1          0.4983262 
836.9808   0.03266077 0.1023019  1          0.5640928 
837.1332   0.03893338 0.1060149  1          0.54336   
837.2856   0.05409797 0.1142958  1          0.4876024 
837.438    0.05964895 0.112647   1          0.4292844 
837.5904   0.03632975 0.09920993 1          0.5093294 
837.7428   0.003803562 0.08021975 1          0.618971  
837.8952   0          0.0605932  1          0.6690611 
838.0476   0          0.05138465 1          0.6242894 
838.2      0          0.06141427 1          0.5798422 
838.3524   0.03984927 0.09359827 1          0.4353668 
838.5048   0.08023755 0.1224142  1          0.3416311 
838.6572   0.1042264  0.1386754  1          0.2790374 
838.8096   0.1026579  0.1408205  1          0.309117  
838.962    0.1169752  0.1465784  1          0.2397855 
839.1144   0.1128196  0.1471711  1          0.278247  
839.2668   0.1135512  0.1471056  1          0.2717908 
839.4192   0.1106302  0.148976   1          0.3106007 
839.5716   0.1182667  0.1549445  1          0.2970906 
839.724    0.1158127  0.1575889  1          0.338387  
839.8764   0.1137462  0.1556377  1          0.3393211 
840.0288   0.1117111  0.1522952  1          0.3287306 
840.1812   0.1104885  0.1498007  1          0.3184288 
840.3336   0.1078831  0.1466203  1          0.3137714 
840.486    0.09040526 0.1336889  1          0.3505978 
840.6384   0.05740331 0.1154661  1          0.4703086 
840.7908   0.03031757 0.09896798 1          0.5560682 
840.9432   0.0179018  0.09388894 1          0.6154957 
841.0956   0.02019923 0.09618703 1          0.615501  
841.248    0.02228533 0.1002747  1          0.631714  
841.4004   0.03457673 0.104776   1          0.5686138 
841.5528   0.02387486 0.1002507  1          0.6186445 
841.7052   0.005049419 0.09296175 1          0.7120898 
841.8576   0          0.08739321 1          0.7299988 
842.01     0          0.0820254  1          0.7297099 
842.1624   0          0.07377097 1          0.6534686 
842.3148   0          0.07232103 1          0.6425599 
842.4672   0.02807372 0.09084085 1          0.5084137 
842.6196   0.05675297 0.1126772  1          0.4529862 
842.772    0.07494812 0.1252946  1          0.4078061 
842.9244   0.07379366 0.128079   1          0.4397115 
843.0768   0.07440386 0.1277254  1          0.4319044 
843.2292   0.06478454 0.1198735  1          0.4462202 
843.3816   0.04648223 0.1074889  1          0.4941543 
843.534    0.03571539 0.1022099  1          0.5386054 
843.6864   0.04959317 0.107429   1          0.4684705 
843.8388   0.06021709 0.1170018  1          0.4599565 
843.9912   0.07971177 0.1290624  1          0.3997404 
844.1436   0.08281542 0.1403457  1          0.4659951 
844.296    0.1052273  0.1536958  1          0.392595  
844.4484   0.1171003  0.1613427  1          0.3583637 
844.6008   0.1244026  0.1603112  1          0.2908595 
844.7532   0.1169717  0.1537057  1          0.2975453 
844.9056   0.1068197  0.1460445  1          0.3177205 
845.058    0.1070959  0.1424192  1          0.2861183 
845.2104   0.09283792 0.1341297  1          0.3344635 
845.3628   0.07409178 0.1228475  1          0.3949214 
845.5152   0.0495571  0.1076611  1          0.4706426 
845.6676   0.02170862 0.08655315 1          0.5252406 
845.82     0          0.07173397 1          0.5907881 
845.9724   0          0.06082911 1          0.6690177 
846.1248   0          0.06226978 1          0.7491118 
846.2772   0          0.06124752 1          0.7318944 
846.4296   0          0.06595938 1          0.7140151 
846.582    0          0.07332784 1          0.686649  
846.7344   0          0.07958029 1          0.7010503 
846.8868   0          0.07736359 1          0.7882029 
847.0392   0          0.07417098 1          0.8453614 
847.1916   0          0.06684197 1          0.8529307 
847.344    0          0.06092963 1          0.7792193 
847.4964   0          0.06252968 1          0.756825  
847.6488   0          0.07339451 1          0.6633244 
847.8012   0.01388287 0.08905184 1          0.6088685 
847.9536   0.03257437 0.1017884  1          0.5606335 
848.106    0.04913739 0.1151828  1          0.5349677 
848.2584   0.07352084 0.1271574  1          0.4344565 
848.4108   0.08317906 0.1331432  1          0.4047097 
848.5632   0.07329002 0.1261951  1          0.428531  
848.7156   0.05459392 0.1164988  1          0.5014296 
848.868    0.03654186 0.1034402  1          0.5418769 
849.0204   0.02559718 0.1012605  1          0.6128727 
849.1728   0.01496834 0.09321357 1          0.6337863 
849.3252   0.02611339 0.09824331 1          0.5842522 
849.4776   0.02734699 0.09471678 1          0.5456952 
849.63     0.01325834 0.08423652 1          0.5749232 
849.7824   0          0.06855004 1          0.6838715 
849.9348   0          0.06653394 1          0.7304083 
850.0872   0.003892555 0.0883772  1          0.6843255 
850.2396   0.03431695 0.1033303  1          0.5590081 
850.392    0.05092271 0.1081112  1          0.4632266 
850.5444   0.04719096 0.1034519  1          0.4557133 
850.6968   0.03671809 0.09733158 1          0.4909692 
850.8492   0.01695308 0.08941491 1          0.5869408 
851.0016   0          0.08116047 1          0.6919435 
851.154    0          0.08148028 1          0.8113495 
851.3064   0          0.07635678 1          1         
851.4588   0          0.06861053 1          1         
851.6112   0          0.0546395  1          1         
851.7636   0          0.05074327 1          0.9635205 
851.916    0          0.05312098 1          0.8881048 
852.0684   0          0.05881359 1          0.9516563 
852.2208   0          0.06110506 1          1         
