#----------------------------------------------------------------------------
~VERSION INFORMATION
VERS.            2.0                  :CWLS LOG ASCII STANDARD -VERSION 2.0
WRAP.            NO                   :ONE LINE PER DEPTH STEP
#
# Created by marten, at DESKTOP-7JFC02N, on 2020-03-17T21:40:57.014521, using version XXX
# NOTE: Some notes for well A
# Written to las on: 2020-03-17T21:52:46.162651
# Modified on: 2020-03-17T21:40:57.273821
#  Modification: sw: None, Test data generated from VCL
#--------------------------------------------------------------------
~WELL INFORMATION
#MNEM .UNIT      DATA                 :DESCRIPTION OF MNEMONIC
#----------      ------------         -------------------------------
STRT   .m        295.0                :START DEPTH
STOP   .m        2636.1688            :STOP DEPTH
STEP   .m        0.1524               :STEP DEPTH
WELL   .         Well_F               :WELL
NULL   .         -999.25              :NULL VALUE
COMP   .                              :COMPANY
WELL   .         Well_F               :WELL
LOC    .         Norway               :LOCATION - AREA
FLD    .                              :FIELD
CTRY   .         nor                  :COUNTRY
DATE   .                              :WELL DATE
XWELL  .m        0                    :X POS
YWELL  .m        0                    :Y POS
EDF    .         24.0                 :DERRICK FLOOR ELEVATION
#
# ----------------------------------------------------------------------------
~CURVE INFORMATION
# MNEM.UNIT                                         : CURVE DESCRIPTION
# ----------                                        -------------------------------
DEPTH               .m                                : 1        DEPTH
VP_DRY              .m/s                              : 2        Vp
VP_SG08             .m/s                              : 3        Vp
VP_SO08             .m/s                              : 4        Vp
VS_DRY              .m/s                              : 5        Vs
VS_SG08             .m/s                              : 6        Vs
VS_SO08             .m/s                              : 7        Vs
RHO_DRY             .g/cm3                            : 8        Rho
RHO_SG08            .g/cm3                            : 9        Rho
RHO_SO08            .g/cm3                            : 10       Rho
PHIE                .fract                            : 11       Por
VCL                 .fract                            : 12       Volume
SW                  .fract                            : 13       Fake water saturation
#
# ----------------------------------------------------------------------------
~A                  VP_DRY              VP_SG08             VP_SO08             VS_DRY              VS_SG08             VS_SO08             RHO_DRY             RHO_SG08            RHO_SO08            PHIE                VCL                 SW                  
# ...
970.5892            2611.2362           2611.2362           2611.2362           1243.9717           1243.9717           1243.9717           2.337               2.337               2.337               -999.25             0.9567              1.0                 
970.7416            2623.8798           2623.8798           2623.8798           1254.1391           1254.1391           1254.1391           2.3453              2.3453              2.3453              -999.25             0.9671              1.0                 
970.894             2633.9706           2633.9706           2633.9706           1262.2538           1262.2538           1262.2538           2.3512              2.3512              2.3512              -999.25             0.9698              1.0                 
971.0464            2642.3603           2642.3603           2642.3603           1269.0005           1269.0005           1269.0005           2.3529              2.3529              2.3529              -999.25             0.9632              1.0                 
971.1988            2642.8899           2642.8899           2642.8899           1269.4263           1269.4263           1269.4263           2.3504              2.3504              2.3504              -999.25             0.9629              1.0                 
971.3512            2624.0536           2624.0536           2624.0536           1254.2789           1254.2789           1254.2789           2.3478              2.3478              2.3478              -999.25             0.973               1.0                 
971.5036            2609.3086           2609.3086           2609.3086           1242.4216           1242.4216           1242.4216           2.3411              2.3411              2.3411              -999.25             0.967               1.0                 
971.656             2607.5686           2607.5686           2607.5686           1241.0224           1241.0224           1241.0224           2.3314              2.3314              2.3314              -999.25             0.939               1.0                 
971.8084            2615.7787           2615.7787           2615.7787           1247.6246           1247.6246           1247.6246           2.326               2.326               2.326               -999.25             0.9142              1.0                 
971.9608            2624.4079           2624.4079           2624.4079           1254.5638           1254.5638           1254.5638           2.3255              2.3255              2.3255              -999.25             0.8935              1.0                 
972.1132            2650.6135           2650.6135           2650.6135           1275.6373           1275.6373           1275.6373           2.328               2.328               2.328               -999.25             0.872               1.0                 
972.2656            2674.4201           2674.4201           2674.4201           1294.7817           1294.7817           1294.7817           2.3342              2.3342              2.3342              -999.25             0.8563              1.0                 
972.418             2698.8531           2698.8531           2698.8531           1314.4297           1314.4297           1314.4297           2.3391              2.3391              2.3391              -999.25             0.8383              1.0                 
972.5704            2728.8548           2728.8548           2728.8548           1338.5559           1338.5559           1338.5559           2.35                2.35                2.35                -999.25             0.8465              1.0                 
972.7228            2760.5307           2760.5307           2760.5307           1364.0283           1364.0283           1364.0283           2.3807              2.3807              2.3807              -999.25             0.915               1.0                 
972.8752            2784.7493           2784.7493           2784.7493           1383.504            1383.504            1383.504            2.4249              2.4249              2.4249              -999.25             0.9917              1.0                 
973.0276            2746.3339           2746.3339           2746.3339           1352.6119           1352.6119           1352.6119           2.4411              2.4411              2.4411              -999.25             1.0                 1.0                 
973.18              2663.644            2663.644            2663.644            1286.116            1286.116            1286.116            2.4077              2.4077              2.4077              -999.25             1.0                 1.0                 
973.3324            2572.8334           2572.8334           2572.8334           1213.0897           1213.0897           1213.0897           2.3608              2.3608              2.3608              -999.25             1.0                 1.0                 
973.4848            2535.0495           2535.0495           2535.0495           1182.7054           1182.7054           1182.7054           2.3279              2.3279              2.3279              -999.25             1.0                 1.0                 
973.6372            2532.9079           2532.9079           2532.9079           1180.9832           1180.9832           1180.9832           2.3138              2.3138              2.3138              -999.25             0.9855              1.0                 
973.7896            2542.9835           2542.9835           2542.9835           1189.0856           1189.0856           1189.0856           2.3048              2.3048              2.3048              -999.25             0.9469              1.0                 
973.942             2565.3818           2565.3818           2565.3818           1207.0974           1207.0974           1207.0974           2.3084              2.3084              2.3084              -999.25             0.9336              1.0                 
974.0944            2586.4945           2586.4945           2586.4945           1224.0754           1224.0754           1224.0754           2.3204              2.3204              2.3204              -999.25             0.9375              1.0                 
974.2468            2605.9902           2605.9902           2605.9902           1239.7531           1239.7531           1239.7531           2.3296              2.3296              2.3296              -999.25             0.945               1.0                 
974.3992            2604.4426           2604.4426           2604.4426           1238.5086           1238.5086           1238.5086           2.3321              2.3321              2.3321              -999.25             0.9438              1.0                 
974.5516            2624.949            2624.949            2624.949            1254.9989           1254.9989           1254.9989           2.3384              2.3384              2.3384              -999.25             0.9539              1.0                 
974.704             2631.6517           2631.6517           2631.6517           1260.389            1260.389            1260.389            2.3587              2.3587              2.3587              -999.25             0.9863              1.0                 
974.8564            2619.1215           2619.1215           2619.1215           1250.3127           1250.3127           1250.3127           2.3808              2.3808              2.3808              -999.25             0.9993              1.0                 
975.0088            2626.7031           2626.7031           2626.7031           1256.4096           1256.4096           1256.4096           2.3845              2.3845              2.3845              -999.25             1.0                 1.0                 
975.1612            2625.4632           2625.4632           2625.4632           1255.4125           1255.4125           1255.4125           2.3642              2.3642              2.3642              -999.25             0.9879              1.0                 
